FIPS,State,County,Lat,Lon,Year,Pop_mid,Observed,PR,Expected,YearCon
1007,AL,Bibb,32.996456285921184,-87.12496297519769,1980,15838,20,21.23711340206185,24.70096386769839,1980
1009,AL,Blount,33.985247659332146,-86.56975624844863,1980,36574,37,18.00849795828275,57.04085443220109,1980
1015,AL,Calhoun,33.776189735428126,-85.8189278837142,1980,120819,129,16.333387088104068,188.4294578565129,1980
1017,AL,Chambers,32.91159373040564,-85.38992379742452,1980,39341,53,17.831691064858887,61.35627096345007,1980
1019,AL,Cherokee,34.17497968295821,-85.59996079989199,1980,19265,27,18.609385043925432,30.04571719353513,1980
1021,AL,Chilton,32.85025257838065,-86.71979303213024,1980,30663,43,19.84730312304604,47.822051715824955,1980
1027,AL,Clay,33.26819989491128,-85.86182353790683,1980,13883,18,21.016453382084094,21.65194351403313,1980
1029,AL,Cleburne,33.66784374695962,-85.51760443449372,1980,12805,17,16.677290836653388,19.970693416206448,1980
1033,AL,Colbert,34.70164419827768,-87.80588967135368,1980,54748,50,14.527831625588481,85.38504671225856,1980
1037,AL,Coosa,32.9339057489659,-86.24996070274753,1980,11448,15,24.678549259554845,17.854314582485863,1980
1043,AL,Cullman,34.12799501622364,-86.87337990995529,1980,61932,43,17.47693515671007,96.58922176122593,1980
1049,AL,DeKalb,34.456711875623874,-85.80487501202649,1980,54207,57,19.455698101883108,84.5413024609374,1980
1051,AL,Elmore,32.59769368916557,-86.1452473221196,1980,43734,46,18.178105556489786,68.20759905227436,1980
1055,AL,Etowah,34.04716480510881,-86.03722956105759,1980,103084,147,16.147019555485745,160.76993050497666,1980
1057,AL,Fayette,33.72120846868618,-87.73891196860764,1980,18946,22,18.12780989081568,29.548204409484377,1980
1059,AL,Franklin,34.44236097221343,-87.84309469036268,1980,28191,26,17.112108901717626,43.96671753973262,1980
1065,AL,Hale,32.760169518322485,-87.63241145686933,1980,15587,9,39.52232200963165,24.30950396551425,1980
1071,AL,Jackson,34.78106081387498,-85.99804919713327,1980,51295,45,15.747477118047405,79.99974375511988,1980
1073,AL,Jefferson,33.55452855088513,-86.89111568110866,1980,668550,936,15.319287635017073,1042.6713848812828,1980
1075,AL,Lamar,33.777399737273136,-88.09823954914171,1980,16421,20,18.241122530617265,25.610211369584235,1980
1077,AL,Lauderdale,34.903376854144675,-87.6491398858879,1980,81379,81,14.755013254524927,126.91878637387468,1980
1079,AL,Lawrence,34.51928062773837,-87.31379316943203,1980,30204,21,23.55411847061569,47.106194763225275,1980
1083,AL,Limestone,34.81041614190275,-86.98448065995663,1980,45775,35,16.959616821197873,71.39074510947681,1980
1087,AL,Macon,32.38729003632757,-85.68942463730481,1980,26605,19,32.979737289189075,41.49319003031415,1980
1089,AL,Madison,34.762676175755715,-86.55163054971966,1980,200059,260,13.832158123561433,312.0122572552009,1980
1093,AL,Marion,34.13605357143094,-87.88798411615092,1980,30338,33,16.062732981831616,47.31518132455068,1980
1095,AL,Marshall,34.36813351123298,-86.30693410178158,1980,66381,104,16.551989532825367,103.5278875174698,1980
1103,AL,Morgan,34.453680838606985,-86.85238315519133,1980,90083,85,13.857707332405367,140.49355525280174,1980
1107,AL,Pickens,33.279382860001604,-88.08929135614927,1980,21786,15,27.076560659599533,33.97747182861959,1980
1111,AL,Randolph,33.291530217402844,-85.45920035570087,1980,20211,18,23.225871347382174,31.521099932444248,1980
1115,AL,St. Clair,33.71885298468711,-86.31221325588201,1980,41660,45,15.606412923754744,64.97298615534251,1980
1117,AL,Shelby,33.26499661207799,-86.66154507631303,1980,69280,73,12.393407103613713,108.04917140763634,1980
1121,AL,Talladega,33.377467343415674,-86.16749103144913,1980,74385,99,20.798144238248696,116.01093555365229,1980
1123,AL,Tallapoosa,32.86644758465434,-85.7968286923543,1980,38724,50,17.350398149851515,60.39399702063089,1980
1125,AL,Tuscaloosa,33.28961721031977,-87.52287706395529,1980,138777,113,20.85128637442238,216.43677627652352,1980
1127,AL,Walker,33.804336015925124,-87.30002599326517,1980,68130,80,16.389105287140065,106.25563002312737,1980
1133,AL,Winston,34.15006038079343,-87.37282173302387,1980,21967,19,18.215716061317497,34.25975964652926,1980
13011,GA,Banks,34.358362819139714,-83.49995604352969,1980,8699,9,11.615579626642086,13.566970872907454,1980
13013,GA,Barrow,33.99175186532207,-83.71436587219553,1980,21987,32,16.789423984891407,34.29095167060768,1980
13015,GA,Bartow,34.23916053211942,-84.83819548424641,1980,41420,78,12.860944121415196,64.59868186640152,1980
13045,GA,Carroll,33.58414340792257,-85.0841733344248,1980,57874,52,15.72948748685982,90.26036007571514,1980
13047,GA,Catoosa,34.89880329073349,-85.1376024762798,1980,37508,32,11.245197250933492,58.49752195666317,1980
13055,GA,Chattooga,34.474061719902586,-85.34505802232799,1980,21892,32,16.35382557764147,34.1427895562352,1980
13057,GA,Cherokee,34.24176460972207,-84.4749343942568,1980,54405,60,10.659104244083707,84.85010349931372,1980
13083,GA,Dade,34.85781983175896,-85.50355549495337,1980,12154,10,17.289877042277244,18.955393032453987,1980
13085,GA,Dawson,34.439673778649805,-84.16489780209591,1980,5032,9,19.04661906761865,7.847913258129706,1980
13097,GA,Douglas,33.70280759733599,-84.76930036118401,1980,55807,81,7.8639193596205175,87.03666438721075,1980
13105,GA,Elbert,34.1152791472876,-82.83694208678105,1980,18971,18,19.683343206419305,29.5871944395824,1980
13111,GA,Fannin,34.86601757613723,-84.31707353363663,1980,14825,20,23.082177744381447,23.121087848126567,1980
13115,GA,Floyd,34.267749732610554,-85.21051675008646,1980,79996,96,12.345583594182735,124.76185790885214,1980
13117,GA,Forsyth,34.22722441755388,-84.12279757248986,1980,28757,32,10.733388376350648,44.84945182115182,1980
13119,GA,Franklin,34.372667942301085,-83.23550561203301,1980,15442,15,19.83988159311087,24.08336179094573,1980
13123,GA,Gilmer,34.69071343968068,-84.45280623502725,1980,11194,16,20.357533746807736,17.45817587668997,1980
13129,GA,Gordon,34.50833040796824,-84.87140226047435,1980,30586,49,12.939879022825252,47.701962423123035,1980
13135,GA,Gwinnett,33.96231988090233,-84.0220851525183,1980,179030,183,5.589122045344911,279.2154035379494,1980
13137,GA,Habersham,34.63053091749805,-83.52888662097617,1980,25250,16,14.712800992258673,39.379930399001395,1980
13139,GA,Hall,34.318198457051025,-83.81622721026437,1980,77544,128,10.910312395028553,120.93771575683823,1980
13143,GA,Haralson,33.796148965714174,-85.20986990345294,1980,18991,28,15.17104610808131,29.618386463660823,1980
13147,GA,Hart,34.347955832526026,-82.96250063340062,1980,18616,17,16.58842794759825,29.033536012190503,1980
13149,GA,Heard,33.297433432704764,-85.12908371330357,1980,6555,12,16.772593396372656,10.223185891701156,1980
13157,GA,Jackson,34.1354098133277,-83.56825444507544,1980,25915,44,14.107057511550105,40.41706519960877,1980
13187,GA,Lumpkin,34.570584113002205,-84.00270482722755,1980,11076,18,16.597724922440538,17.27414293462731,1980
13195,GA,Madison,34.1302778306209,-83.21330431786096,1980,18017,32,16.058929780988937,28.099334891041913,1980
13213,GA,Murray,34.789567656922976,-84.74680296084345,1980,20127,14,14.144300438820288,31.390093431314906,1980
13223,GA,Paulding,33.919987782863764,-84.86313898719439,1980,26952,49,12.415810337528384,42.03437164807469,1980
13227,GA,Pickens,34.46518469779033,-84.46760460409592,1980,11882,25,17.056479556479555,18.53118150498751,1980
13233,GA,Polk,34.00394744464617,-85.18442251712011,1980,32691,49,16.042546535272955,50.98492295737643,1980
13241,GA,Rabun,34.882351172941874,-83.40730481400934,1980,10520,15,17.113023300783137,16.407004665247314,1980
13257,GA,Stephens,34.549808512250145,-83.29044307549547,1980,22014,34,14.807992064616695,34.333060903113534,1980
13281,GA,Towns,34.91488055676013,-83.74004798025207,1980,5919,9,22.65640038498557,9.231279526007498,1980
13291,GA,Union,34.829139647224366,-83.98796761925891,1980,9732,10,26.17254733218589,15.178038916557693,1980
13295,GA,Walker,34.73431661938368,-85.3015810336374,1980,56759,55,12.311728174744804,88.52140473334343,1980
13311,GA,White,34.64285448855226,-83.74792739428986,1980,10421,9,16.41312221877264,16.252604146059156,1980
13313,GA,Whitfield,34.813300396746826,-84.96126750266609,1980,66558,100,11.937296566971689,103.80393693056378,1980
21001,KY,Adair,37.10766151313809,-85.27792374280187,1980,15390,18,28.508655126498,24.002262528341852,1980
21011,KY,Bath,38.14373304200314,-83.7414905981694,1980,10025,9,28.25823398666397,15.635002069306498,1980
21013,KY,Bell,36.73042114926372,-83.67807383905777,1980,34065,56,30.510824042942254,53.12781501156368,1980
21019,KY,Boyd,38.351003849782316,-82.6828280376035,1980,55059,63,13.531807175874972,85.87008268667795,1980
21025,KY,Breathitt,37.52302890358717,-83.33170536577413,1980,16895,12,36.03723404255321,26.349462340242724,1980
21043,KY,Carter,38.31860566671436,-83.05276378026778,1980,25277,25,25.86464948828931,39.42203963150728,1980
21045,KY,Casey,37.3292530077064,-84.92799412789655,1980,15096,10,35.910443722943725,23.54373977438912,1980
21049,KY,Clark,37.96911886144236,-84.14729926324206,1980,28537,33,16.156286763395244,44.50633955628923,1980
21051,KY,Clay,37.1635092661364,-83.7160766781258,1980,22655,14,42.3842817948491,35.332765274826805,1980
21053,KY,Clinton,36.72111786345463,-85.128331763145,1980,9488,9,39.43071965628357,14.797496222801005,1980
21057,KY,Cumberland,36.78731523989615,-85.38968028469206,1980,7415,16,30.55594066269236,11.564442927073085,1980
21061,KY,Edmonson,37.21065921227277,-86.23915101010384,1980,10022,9,22.57110816597003,15.630323265694734,1980
21063,KY,Elliott,38.11869337010685,-83.09529376514064,1980,6859,9,32.28608657883307,10.697304657693095,1980
21065,KY,Estill,37.69143854769993,-83.96143089196073,1980,14555,15,28.05259862241704,22.69999552306794,1980
21069,KY,Fleming,38.36884961533301,-83.70056299868467,1980,12419,18,23.871763255240445,19.36868735149301,1980
21071,KY,Floyd,37.559946179794046,-82.74199163414895,1980,48589,71,22.316774153668646,75.77946289731007,1980
21079,KY,Garrard,37.644082567596094,-84.54104465834624,1980,11245,15,21.718532280538785,17.537715538089937,1980
21087,KY,Green,37.26161673480646,-85.55287490380813,1980,11070,11,24.276394376550584,17.264785327403786,1980
21089,KY,Greenup,38.543298867847746,-82.91989844448129,1980,38847,45,13.121507840461414,60.585827968713176,1980
21095,KY,Harlan,36.85931051635973,-83.22286996520224,1980,42234,74,25.806296447726016,65.86819724639308,1980
21099,KY,Hart,37.300077324830454,-85.8860301003842,1980,15170,29,28.186737953967533,23.659150263479265,1980
21109,KY,Jackson,37.42079908838914,-83.99980134615599,1980,12202,17,39.17723631508678,19.030253890242182,1980
21115,KY,Johnson,37.848895689532426,-82.8346569055932,1980,24648,29,22.864853643346482,38.441050474241045,1980
21119,KY,Knott,37.35595632185564,-82.95543627401278,1980,18129,13,30.90909090909091,28.274010225881053,1980
21121,KY,Knox,36.88819722772831,-83.85400812857823,1980,30572,33,37.09574930604328,47.680128006268156,1980
21125,KY,Laurel,37.10787393617837,-84.12134975795429,1980,40170,37,21.133473204341183,62.64918036150046,1980
21127,KY,Lawrence,38.065633183449506,-82.73878427902201,1980,14225,18,29.89196537168205,22.18532712577406,1980
21129,KY,Lee,37.59719003039768,-83.71534748361906,1980,7566,10,33.429357077386406,11.799942708865132,1980
21131,KY,Leslie,37.097459320416455,-83.380259284952,1980,14836,16,34.121916795483564,23.138243461369697,1980
21133,KY,Letcher,37.12211792767265,-82.85393024098151,1980,30710,38,27.42204626509177,47.89535297240924,1980
21135,KY,Lewis,38.52912178750733,-83.38615396319727,1980,14629,14,31.158566179019623,22.81540601215808,1980
21137,KY,Lincoln,37.45809008407723,-84.65668285409079,1980,19064,24,27.859408033826647,29.73223735154704,1980
21147,KY,McCreary,36.73492902916602,-84.48346990878316,1980,15796,25,39.48197184909056,24.635460617133713,1980
21151,KY,Madison,37.71450926545657,-84.27134487247834,1980,53606,44,21.119832090775922,83.60398213738097,1980
21153,KY,Magoffin,37.700247146997015,-83.0662250704307,1980,13779,10,34.99888467544055,21.48974498882536,1980
21159,KY,Martin,37.79850919316122,-82.50868320000302,1980,14052,9,26.96685878962536,21.915516117495763,1980
21165,KY,Menifee,37.94057732866296,-83.5998625358691,1980,5222,9,28.85945839098636,8.144237486874667,1980
21169,KY,Metcalfe,36.98825272075444,-85.62412889325354,1980,9481,12,30.78234917927947,14.786579014373558,1980
21171,KY,Monroe,36.70864312983213,-85.72165970123639,1980,12438,11,29.10790423089537,19.398319774367504,1980
21173,KY,Montgomery,38.04115235796928,-83.91670631859309,1980,20036,17,21.744168471963324,31.248169721758103,1980
21175,KY,Morgan,37.92364193087342,-83.26151656642057,1980,12224,9,36.73247448552786,19.064565116728442,1980
21181,KY,Nicholas,38.33351481503677,-84.02383287964444,1980,7155,13,21.027377928309342,11.158946614053665,1980
21189,KY,Owsley,37.42556349733932,-83.68364789390358,1980,5680,9,48.31638021746755,8.858534838270414,1980
21193,KY,Perry,37.24714256181998,-83.22368330883386,1980,33367,50,24.300402324541803,52.03921337122693,1980
21195,KY,Pike,37.4641631026586,-82.39341024890952,1980,80738,102,19.358431721987078,125.9190820021614,1980
21197,KY,Powell,37.829856108192395,-83.82036673090694,1980,11174,12,25.62511407191093,17.426983852611553,1980
21199,KY,Pulaski,37.103802330860795,-84.57907025532626,1980,46340,36,22.319875083649343,72.27191978969208,1980
21201,KY,Robertson,38.51451701358183,-84.05192280464247,1980,2335,9,24.503311258278146,3.6416688111551805,1980
21203,KY,Rockcastle,37.36715021862909,-84.315201525912,1980,13965,12,33.139284174213024,21.77983081275464,1980
21205,KY,Rowan,38.1886865905926,-83.4282274767362,1980,20142,17,21.764705882352942,31.41348744937371,1980
21207,KY,Russell,36.99045974188001,-85.05964297275492,1980,14087,14,32.394055326662745,21.970102159632983,1980
21231,KY,Wayne,36.80304767994051,-84.82219650960067,1980,17157,19,35.06570731997384,26.758077855669985,1980
21235,KY,Whitley,36.75609403430615,-84.14875277950892,1980,33494,27,26.576841064309768,52.23728272412488,1980
21237,KY,Wolfe,37.744919508281825,-83.4970677060834,1980,6762,9,34.894578313253014,10.546023340912773,1980
24001,MD,Allegany,39.619692908848364,-78.70476842019038,1980,80647,113,12.218054770590351,125.7771582926046,1980
24023,MD,Garrett,39.53207137941799,-79.27337780170771,1980,26763,32,15.781364354223642,41.73960702053365,1980
24043,MD,Washington,39.602373550503174,-77.82085586524563,1980,112463,116,10.825506215380056,175.39743019655032,1980
28003,MS,Alcorn,34.882401759751744,-88.57716011473364,1980,32956,40,18.5391028185788,51.398217276415465,1980
28009,MS,Benton,34.81716643422459,-89.18945815072884,1980,8154,9,24.41060903732809,12.716988216770591,1980
28013,MS,Calhoun,33.93465789992443,-89.33461292724466,1980,15449,16,23.54231166150671,24.094278999373174,1980
28017,MS,Chickasaw,33.92184715754966,-88.9447354600207,1980,17539,21,21.362944591623922,27.353845515567752,1980
28019,MS,Choctaw,33.347535484758964,-89.25051430016414,1980,8777,9,28.475996376811594,13.688619766813279,1980
28025,MS,Clay,33.6536068355625,-88.77796103671827,1980,21291,16,24.35031816194686,33.20546923267877,1980
28057,MS,Itawamba,34.27989954888438,-88.36077420409036,1980,20666,16,15.35017906884202,32.23071848022824,1980
28069,MS,Kemper,32.75459305697637,-88.64097092576138,1980,10287,9,37.20170313892464,16.04361758473376,1980
28081,MS,Lee,34.291999503070585,-88.68147806716148,1980,57352,54,15.811656820386212,89.44624824726843,1980
28087,MS,Lowndes,33.47321921633493,-88.44248470173545,1980,59346,50,22.134387351778656,92.55609304788663,1980
28093,MS,Marshall,34.760138836808814,-89.50143107293266,1980,29616,23,31.87696609577071,46.189149255319826,1980
28095,MS,Monroe,33.89197836887148,-88.48050842431219,1980,36800,24,21.31306687376917,57.39332430428721,1980
28097,MS,Montgomery,33.49419588737756,-89.61729103363704,1980,13228,11,30.748340374170194,20.630404725464974,1980
28103,MS,Noxubee,33.110123552258344,-88.56955918167833,1980,13232,14,39.52608070255129,20.636643130280657,1980
28105,MS,Oktibbeha,33.42472425417841,-88.87907312180022,1980,36920,22,28.16194229058091,57.580476448757715,1980
28107,MS,Panola,34.36447144357219,-89.95050411605357,1980,28114,39,34.33267822047525,43.846628247030715,1980
28115,MS,Pontotoc,34.22607612498239,-89.03636107181593,1980,20742,21,19.121397295866814,32.349248171726224,1980
28117,MS,Prentiss,34.618114150114565,-88.51975465465149,1980,24160,17,17.385020828020064,37.679965086727684,1980
28139,MS,Tippah,34.76889941495527,-88.90731201805252,1980,18534,21,24.30441898527005,28.90564871346899,1980
28141,MS,Tishomingo,34.74123246365633,-88.23855426093283,1980,18995,10,13.482962882452039,29.624624868476506,1980
28145,MS,Union,34.49181731349697,-89.00814506387206,1980,21966,26,20.049046825837497,34.25820004532534,1980
28155,MS,Webster,33.612926433128315,-89.28273683122717,1980,10274,9,19.62275330831523,16.023342769082788,1980
28159,MS,Winston,33.08890655207067,-89.035418362035,1980,19230,26,25.0,29.9911311513979,1980
28161,MS,Yalobusha,34.0284714678083,-89.70890484934868,1980,13101,9,24.57426498663612,20.432335372567028,1980
36003,NY,Allegany,42.25771299641307,-78.02637989144647,1980,51842,65,15.045478865703585,80.85284561366458,1980
36007,NY,Broome,42.16075801509496,-75.81842929619197,1980,213822,308,8.769605559437844,333.4770486247635,1980
36009,NY,Cattaraugus,42.247566999208985,-78.67941427640899,1980,86137,104,13.503601040973187,134.33936890213008,1980
36013,NY,Chautauqua,42.22769412034111,-79.36702793338576,1980,146910,194,11.171885971071479,229.1210128680117,1980
36015,NY,Chemung,42.141498492017284,-76.7584950377986,1980,96475,126,10.981831295143348,150.46252614826378,1980
36017,NY,Chenango,42.49395920535269,-75.60817245742848,1980,49492,60,12.337635561420148,77.1877827844506,1980
36023,NY,Cortland,42.595696582012465,-76.07070453093762,1980,48871,52,14.669489843181367,76.21927043681575,1980
36025,NY,Delaware,42.19758131031266,-74.96646596862364,1980,46711,68,14.112352506549046,72.85053183634672,1980
36077,NY,Otsego,42.635650239269964,-75.0306288073739,1980,59017,60,15.296523517382411,92.04298425179668,1980
36095,NY,Schoharie,42.58874219803142,-74.44207498383395,1980,29671,31,13.252923976608189,46.27492732153547,1980
36097,NY,Schuyler,42.394407987680395,-76.88032488491828,1980,17819,23,10.584363090426146,27.790533852665586,1980
36101,NY,Steuben,42.268534602024744,-77.3814566312603,1980,99071,133,12.170158652021868,154.51125087364233,1980
36107,NY,Tioga,42.168697336415036,-76.30734590670049,1980,50318,47,8.70516717325228,78.47601337888922,1980
36109,NY,Tompkins,42.45089018297964,-76.47243845827458,1980,88318,112,16.992288257781187,137.74085912788144,1980
37003,NC,Alexander,35.922659677932465,-81.17436439265245,1980,25216,42,8.777746330813084,39.326903958068094,1980
37005,NC,Alleghany,36.489787604146,-81.13380419356923,1980,9668,22,19.59480848369737,15.078224439506755,1980
37009,NC,Ashe,36.431279414119075,-81.50301613141356,1980,22465,32,22.809307349565678,35.036441046081855,1980
37011,NC,Avery,36.072716589469216,-81.92584964882211,1980,14533,18,18.037037037037038,22.665684296581677,1980
37021,NC,Buncombe,35.60827215424009,-82.52100953468846,1980,161917,293,12.931105754860376,252.52594813525192,1980
37023,NC,Burke,35.75025792211415,-81.71046471545758,1980,72827,95,10.086368216496329,113.58107687794356,1980
37027,NC,Caldwell,35.94834965554608,-81.54642898733542,1980,67916,134,10.359804256964793,105.92187536548828,1980
37039,NC,Cherokee,35.13513518827213,-84.06456883699074,1980,19120,26,22.221630828188204,29.819575018966606,1980
37043,NC,Clay,35.05782515021145,-83.74482067027425,1980,6790,12,22.843329808128114,10.589692174622558,1980
37059,NC,Davie,35.924975358900376,-80.54835528949444,1980,25044,40,10.88754474756203,39.058652550993706,1980
37067,NC,Forsyth,36.128566385742175,-80.26016209826109,1980,246977,458,11.579210246729113,385.1856265407592,1980
37075,NC,Graham,35.35086875637412,-83.83253812489541,1980,7168,12,19.578772343078846,11.179221429704638,1980
37087,NC,Haywood,35.55622377103415,-82.98430977469809,1980,46726,75,15.644774165393846,72.87392585440553,1980
37089,NC,Henderson,35.332451318784024,-82.48546033241823,1980,60228,98,12.323730949134404,93.9316613097448,1980
37099,NC,Jackson,35.28144869691526,-83.13861846090862,1980,26267,50,19.334829088029558,40.966044823388906,1980
37111,NC,McDowell,35.6864334589627,-82.05222650687048,1980,35666,37,11.811183144246352,55.62473653904096,1980
37113,NC,Macon,35.152904723865944,-83.42439317001488,1980,21145,30,17.248756218905474,32.97776745690633,1980
37115,NC,Madison,35.85795942085804,-82.7075265973742,1980,17079,18,25.75900433716764,26.63642896176416,1980
37121,NC,Mitchell,36.01903714840599,-82.17331356382228,1980,14399,18,16.836557797656194,22.45669773525629,1980
37149,NC,Polk,35.2785042831579,-82.16666317983028,1980,13508,29,13.69349676009056,21.067093062562808,1980
37161,NC,Rutherford,35.40154342768418,-81.92400883011123,1980,54483,68,13.674329357763648,84.97175239321955,1980
37169,NC,Stokes,36.40214373227822,-80.239287125827,1980,33647,39,12.626416473741925,52.475901708324756,1980
37171,NC,Surry,36.41144572904821,-80.69087110135331,1980,59609,99,13.679197142371152,92.9662681645178,1980
37173,NC,Swain,35.4874306725269,-83.49493471563963,1980,10490,25,25.9336511720302,16.360216629129685,1980
37175,NC,Transylvania,35.20297917072682,-82.79504015473589,1980,23697,27,12.905643738977073,36.95786972931233,1980
37189,NC,Watauga,36.22683354979276,-81.70535594952554,1980,32910,64,22.74248708433384,51.3264756210351,1980
37193,NC,Wilkes,36.20281293611431,-81.16590257947267,1980,58915,93,13.780353580518675,91.88390492899671,1980
37197,NC,Yadkin,36.15600448988789,-80.66325098942386,1980,28748,47,14.268405673152303,44.835415410316536,1980
37199,NC,Yancey,35.89849759792397,-82.30580843488367,1980,15019,19,23.39268723664537,23.42365048168721,1980
39001,OH,Adams,38.845255678896244,-83.47295401550771,1980,24369,30,24.705979791287064,38.00592173834714,1980
39007,OH,Ashtabula,41.70755233438669,-80.74855122584229,1980,103003,122,9.056522841155024,160.64360280745908,1980
39009,OH,Athens,39.33366973719062,-82.04191190086432,1980,56747,47,21.567128721052732,88.50268951889635,1980
39013,OH,Belmont,40.01604492279913,-80.99018905149879,1980,81830,91,9.30878608068427,127.62216651684295,1980
39015,OH,Brown,38.93399744134472,-83.8672818337953,1980,32160,49,15.032948929159806,50.15677471809446,1980
39019,OH,Carroll,40.5788829006453,-81.0951314510191,1980,25464,29,9.921091240731196,39.713685056640465,1980
39025,OH,Clermont,39.04982093853725,-84.1548760783537,1980,131075,128,8.13324037007732,204.42472780392512,1980
39029,OH,Columbiana,40.76504802314248,-80.7771567889072,1980,112522,132,9.566836621591666,175.48944666758163,1980
39031,OH,Coshocton,40.30244499301967,-81.91974487480583,1980,36260,53,10.163915989540866,56.551139654169944,1980
39053,OH,Gallia,38.82665521978604,-82.31463983443271,1980,30184,37,14.904463016263827,47.07500273914688,1980
39059,OH,Guernsey,40.04996854001837,-81.4968593806242,1980,41979,56,12.59500012218665,65.47049893939327,1980
39067,OH,Harrison,40.29321298614549,-81.09070740875414,1980,17616,20,11.000391871466157,27.47393480826965,1980
39071,OH,Highland,39.184620963108,-83.60510396543206,1980,33825,51,14.989590562109644,52.75351072262267,1980
39073,OH,Hocking,39.49637839426545,-82.47713270337599,1980,24216,42,12.355485319803707,37.767302754147245,1980
39075,OH,Holmes,40.56163288868535,-81.9263696264815,1980,29777,12,18.222690551457678,46.44024504915108,1980
39079,OH,Jackson,39.02106309794471,-82.61552778768142,1980,30285,24,16.633676431776195,47.23252246074286,1980
39081,OH,Jefferson,40.38730289932763,-80.76332447023171,1980,90088,131,10.214423225863557,140.50135325882133,1980
39087,OH,Lawrence,38.59754769074685,-82.53664037663691,1980,63171,76,15.195659738698554,98.52156765288387,1980
39099,OH,Mahoning,41.01286198260703,-80.77775711223738,1980,284900,438,11.020301289995984,444.33038299704947,1980
39105,OH,Meigs,39.080105311650044,-82.01520116957663,1980,23405,40,16.712049012933967,36.50246617776744,1980
39111,OH,Monroe,39.72666403387222,-81.07936673359109,1980,16868,23,13.450529115827214,26.30735310773686,1980
39115,OH,Morgan,39.61957489534746,-81.85090083057226,1980,13920,18,14.80530594779632,21.7096487585782,1980
39119,OH,Muskingum,39.966520291362656,-81.94577514427743,1980,83356,111,11.95354188084398,130.00211795402618,1980
39121,OH,Noble,39.76818851123618,-81.45937183415612,1980,11057,12,12.992125984251967,17.244510511752814,1980
39127,OH,Perry,39.73815888471912,-82.23638167084911,1980,31215,34,12.532848846640494,48.68295158038927,1980
39131,OH,Pike,39.07598401741543,-83.07027891989642,1980,23319,31,20.605870771433686,36.36834047423025,1980
39141,OH,Ross,39.336760883517925,-83.05920181570788,1980,65579,78,11.673655748587342,102.27708735192527,1980
39145,OH,Scioto,38.8011158913095,-82.99367949381934,1980,83439,121,17.858494135452137,130.13156485395157,1980
39155,OH,Trumbull,41.31742008599128,-80.76110030078303,1980,240638,278,8.106328354227793,375.2993145091048,1980
39157,OH,Tuscarawas,40.437114980386646,-81.47217202925542,1980,84849,109,8.968599149261578,132.33060255148,1980
39163,OH,Vinton,39.252843016795026,-82.48595540070261,1980,11143,14,17.575757575757574,17.378636215290005,1980
39167,OH,Washington,39.45691024245798,-81.49233492886759,1980,63964,87,9.770188317906161,99.7583314075931,1980
42003,PA,Allegheny,40.465034241870256,-79.978954466311,1980,1439365,2676,9.150420979675728,2244.835386881531,1980
42005,PA,Armstrong,40.8123856206925,-79.46550075053662,1980,77393,95,9.63432700054578,120.70221597504616,1980
42007,PA,Beaver,40.68219239336738,-80.34875800363788,1980,201956,316,7.468383924012352,314.97082073903874,1980
42009,PA,Bedford,40.005936217740384,-78.4896062007238,1980,47081,46,14.662245095716965,73.42758428179744,1980
42013,PA,Blair,40.47723684786133,-78.35055711877322,1980,135531,180,10.946185600810717,211.37431076859642,1980
42015,PA,Bradford,41.78879908180103,-76.5158164254837,1980,63173,79,13.582877342501574,98.5246868552917,1980
42019,PA,Butler,40.91140054953501,-79.9128990716287,1980,148556,179,7.2526443752008625,231.68811644966544,1980
42021,PA,Cambria,40.49443898683218,-78.71185388796506,1980,181422,278,9.671296114296624,282.94596961772805,1980
42023,PA,Cameron,41.436332298858645,-78.20386569442026,1980,6701,10,11.072559963795442,10.450887667473602,1980
42025,PA,Carbon,40.913167386901314,-75.70597315610998,1980,53583,78,7.6065350320882965,83.56811130969078,1980
42027,PA,Centre,40.92203468688562,-77.81824606823722,1980,114491,74,16.743822397794375,178.56030143810182,1980
42031,PA,Clarion,41.19546199318124,-79.42336838806017,1980,43445,46,11.886189733303619,67.75687430434122,1980
42033,PA,Clearfield,40.999379596971,-78.47308284818986,1980,82917,112,10.446535335112873,129.3174530255049,1980
42035,PA,Clinton,41.2358413931936,-77.63436626089761,1980,38713,34,11.181867242309767,60.37684140738778,1980
42037,PA,Columbia,41.04981632305999,-76.40380677861594,1980,62389,82,11.370485774122695,97.30195951141776,1980
42039,PA,Crawford,41.68459206001365,-80.10735206126095,1980,89403,119,11.487853074508893,139.43302643413554,1980
42047,PA,Elk,41.428107108124685,-78.64557876998508,1980,38318,55,6.415719696969697,59.760798931839034,1980
42049,PA,Erie,41.99236639544638,-80.03247948615176,1980,280645,441,10.037761908960004,437.6942798743663,1980
42051,PA,Fayette,39.92106932123257,-79.64411511531453,1980,157392,237,15.527934619222655,245.46875268751012,1980
42053,PA,Forest,41.513661311374996,-79.23197596586637,1980,5072,10,12.032944957814387,7.91029730628654,1980
42057,PA,Fulton,39.92630408729074,-78.11157439470689,1980,12995,12,14.401319924575741,20.267017644951416,1980
42059,PA,Greene,39.85283815961429,-80.2232593941186,1980,40495,43,13.968269982596413,63.156050752774725,1980
42061,PA,Huntingdon,40.421370291699574,-77.97686746427162,1980,42328,32,13.655435793070525,66.01479975956164,1980
42063,PA,Indiana,40.65145226775638,-79.08650961497837,1980,92189,117,13.503861227708075,143.77807538825903,1980
42065,PA,Jefferson,41.130022115661156,-78.99759384576456,1980,48122,65,10.21148923670849,75.05112913507905,1980
42067,PA,Juniata,40.53142769287285,-77.40585793638617,1980,19324,20,12.71526677231907,30.13773366456646,1980
42069,PA,Lackawanna,41.434683112750704,-75.60822617834344,1980,227563,326,9.804151149018958,354.9075287678399,1980
42073,PA,Lawrence,40.99077826064697,-80.3343526946106,1980,106079,116,9.915869980879544,165.44093611071958,1980
42079,PA,Luzerne,41.17710778579855,-75.98243616259141,1980,340184,550,9.923098883060343,530.5513759546096,1980
42081,PA,Lycoming,41.34382289958747,-77.06068881822378,1980,117589,137,10.770961322142425,183.39194596784856,1980
42083,PA,McKean,41.809520673700106,-78.5723916574792,1980,50736,75,10.169218696553251,79.12792668212812,1980
42085,PA,Mercer,41.30155827155718,-80.258213252466,1980,127600,188,9.079012206056985,199.00511362030014,1980
42087,PA,Mifflin,40.61623708546824,-77.6109020936088,1980,46852,33,13.075347633933385,73.07043560609955,1980
42089,PA,Monroe,41.05684891019836,-75.33977187371454,1980,70443,121,8.557332934668857,109.86298760779628,1980
42093,PA,Montour,41.033291624100116,-76.66841630451262,1980,16870,17,8.688599052624749,26.3104723101447,1980
42097,PA,Northumberland,40.85059074495749,-76.71092617628436,1980,100323,146,11.416701037150302,156.4638715809512,1980
42099,PA,Perry,40.40137772673239,-77.25718600216071,1980,36072,37,8.332389260224312,56.257934627832825,1980
42103,PA,Pike,41.33029786981072,-75.03147345867978,1980,18757,33,9.048851682546676,29.253439781943346,1980
42105,PA,Potter,41.744838732807814,-77.89576705989248,1980,17951,21,15.4248290917447,27.996401211583137,1980
42107,PA,Schuylkill,40.70590912714066,-76.21263156263278,1980,159324,301,10.803112059229514,248.48190221348514,1980
42109,PA,Snyder,40.77089298977678,-77.07099409367433,1980,34019,27,10.71231721946633,53.05607335618332,1980
42111,PA,Somerset,39.97122645404977,-79.02765583114018,1980,81292,108,11.708603642454472,126.78310106913356,1980
42113,PA,Sullivan,41.446343742988894,-76.51262649665256,1980,6278,9,16.161616161616163,9.791176358215084,1980
42115,PA,Susquehanna,41.82248983012018,-75.79975086028496,1980,37612,48,12.871655762991333,58.65972048187093,1980
42117,PA,Tioga,41.77299274922828,-77.25528592568294,1980,41435,35,15.358292047602026,64.62207588446033,1980
42119,PA,Union,40.954034719414075,-77.07143518287371,1980,33134,25,9.374331169294427,51.67582629071337,1980
42121,PA,Venango,41.402857247694136,-79.75982360671578,1980,64472,74,8.724756978364269,100.55060881918492,1980
42123,PA,Warren,41.81334731706143,-79.27779736446892,1980,47935,59,8.513548723293383,74.75948370994584,1980
42125,PA,Washington,40.188711470429155,-80.25042327557965,1980,215973,325,8.908331021902956,336.83175081439725,1980
42127,PA,Wayne,41.64940507484564,-75.3013356374813,1980,35397,49,12.28596137215336,55.20520381518625,1980
42129,PA,Westmoreland,40.30948858417853,-79.46488738280983,1980,391831,493,7.439107389609586,611.1000993335098,1980
42131,PA,Wyoming,41.520856309386296,-76.01501113832902,1980,26461,28,10.741569565552897,41.268607456949546,1980
45007,SC,Anderson,34.51765728009019,-82.63864434573149,1980,136189,172,12.513089005235605,212.40052836077632,1980
45021,SC,Cherokee,35.04974682306474,-81.61753483635475,1980,41255,42,14.222112292851849,64.34134766775458,1980
45045,SC,Greenville,34.89104867731327,-82.36787898993309,1980,293561,396,11.806936002860208,457.838089024208,1980
45073,SC,Oconee,34.75536746151503,-83.0696524384478,1980,49677,56,14.026905457786622,77.47630900717596,1980
45077,SC,Pickens,34.887143912247595,-82.72608330449034,1980,81106,88,10.698140947251268,126.49301524520428,1980
45083,SC,Spartanburg,34.932709963783545,-81.99304774386157,1980,206165,253,13.767686439003633,321.53518220634163,1980
47001,TN,Anderson,36.118957530033825,-84.19713461582741,1980,67769,94,14.554173535141615,105.69261398851194,1980
47007,TN,Bledsoe,35.59448297460386,-85.20518498326145,1980,9421,9,24.211011287721725,14.693002942138307,1980
47009,TN,Blount,35.689804503151485,-83.92140370769845,1980,78545,93,12.678333898437705,122.498876561963,1980
47011,TN,Bradley,35.150957411913026,-84.86088881169427,1980,68271,77,13.896742006198506,106.47553379288021,1980
47013,TN,Campbell,36.40240279235425,-84.14457449114335,1980,35320,38,24.81806414497339,55.08511452248434,1980
47015,TN,Cannon,35.80875367442373,-86.06361157130205,1980,10250,18,17.534003548196335,15.985912340188687,1980
47019,TN,Carter,36.29123723629193,-82.12669964474514,1980,51022,61,18.822121722200816,79.57397262644947,1980
47025,TN,Claiborne,36.48402798269159,-83.65907017384805,1980,24926,35,29.31828554831749,38.87461960893105,1980
47027,TN,Clay,36.547826106558354,-85.54222365077844,1980,7572,10,26.77957131516274,11.80930031608866,1980
47029,TN,Cocke,35.928264070033244,-83.12025618928281,1980,29105,36,27.54169283371712,45.39219304011628,1980
47031,TN,Coffee,35.491857125790226,-86.07536878315035,1980,39037,45,14.297040169133195,60.88215219745813,1980
47035,TN,Cumberland,35.948990311173915,-85.0012207200778,1980,29134,46,21.9278209227958,45.437421475029964,1980
47041,TN,DeKalb,35.97883288362529,-85.8318282164069,1980,13696,9,22.893352108500704,21.36029808889993,1980
47049,TN,Fentress,36.377104309091976,-84.93016935035125,1980,14865,24,33.489700183561084,23.183471896283397,1980
47051,TN,Franklin,35.15393383719049,-86.09438319663093,1980,32286,34,16.467857373138177,50.35328446978849,1980
47057,TN,Grainger,36.27545594584792,-83.50942309877729,1980,16792,16,22.906611969111967,26.18882341623888,1980
47059,TN,Greene,36.17744886993448,-82.84434312565473,1980,55146,81,17.963131198425316,86.00576799141906,1980
47061,TN,Grundy,35.38892304324621,-85.72893584199079,1980,13832,18,25.509906759906762,21.572403852633165,1980
47063,TN,Hamblen,36.217178621705436,-83.26091422254775,1980,50011,62,15.601311206719934,77.99721580928552,1980
47065,TN,Hamilton,35.178898350342564,-85.16603582864137,1980,290795,402,13.512644433805196,453.5242320941629,1980
47067,TN,Hancock,36.52412641819769,-83.2238419964052,1980,6913,9,43.048089495859365,10.78152312270482,1980
47073,TN,Hawkins,36.44169378409708,-82.94578300741695,1980,44473,64,18.310310860651047,69.36014434197186,1980
47087,TN,Jackson,36.364107508756334,-85.67751572682603,1980,9213,11,24.86880154225127,14.368605891722767,1980
47089,TN,Jefferson,36.053645964491466,-83.45045747809384,1980,31867,34,17.07996375960538,49.69981156534566,1980
47091,TN,Johnson,36.453719423103344,-81.84906550101076,1980,13885,17,26.49959815883685,21.65506271644097,1980
47093,TN,Knox,35.99699332879875,-83.93658731056719,1980,324877,407,14.71449154962486,506.67856032619324,1980
47099,TN,Lawrence,35.21761442134906,-87.3963279129036,1980,34367,36,16.596135065549998,53.598814575147784,1980
47101,TN,Lewis,35.52955014001552,-87.49590701155373,1980,9860,12,21.3085958941706,15.377667870659561,1980
47105,TN,Loudon,35.73076105999539,-84.3091699874898,1980,29235,40,12.848330142522867,45.594941196625975,1980
47107,TN,McMinn,35.42272106993007,-84.61801033727106,1980,42434,45,15.99990348421967,66.18011748717726,1980
47111,TN,Macon,36.53172091480432,-86.00796813562144,1980,16044,19,16.55079181151023,25.022241715706077,1980
47115,TN,Marion,35.13108269155478,-85.62582075406347,1980,24554,32,18.778392665400183,38.29444796107249,1980
47121,TN,Meigs,35.51470415591632,-84.81734901835648,1980,7482,13,14.33189655172414,11.668936207735785,1980
47123,TN,Monroe,35.44262282447503,-84.24942154051354,1980,28932,27,19.39451947959871,45.12238203183797,1980
47129,TN,Morgan,36.131966813553966,-84.64718423469269,1980,17237,17,25.663607045398173,26.882845951983647,1980
47133,TN,Overton,36.341574546614375,-85.28843628197501,1980,17487,21,25.357614752685706,27.272746252963863,1980
47137,TN,Pickett,36.55859712696381,-85.07900097219097,1980,4432,9,28.473019517795638,6.912152535777197,1980
47139,TN,Polk,35.1196678114741,-84.5205148800593,1980,13727,13,19.414188990285545,21.40864572622148,1980
47141,TN,Putnam,36.14326972884025,-85.50660384989126,1980,48656,67,16.737101403421548,75.88395617797276,1980
47143,TN,Rhea,35.609849291623156,-84.92986007146268,1980,24305,21,19.722656745444556,37.90610726129621,1980
47145,TN,Roane,35.84614704454565,-84.52241722369209,1980,48562,49,13.21453078538604,75.7373536648042,1980
47151,TN,Scott,36.42677010660577,-84.50229006647206,1980,19389,21,28.56024630798936,30.23910774282132,1980
47153,TN,Sequatchie,35.372152550037825,-85.41020541285475,1980,8664,9,22.365641868106078,13.512384830770225,1980
47155,TN,Sevier,35.783641764397906,-83.51997212032005,1980,42753,64,15.103938464534345,66.677630271228,1980
47159,TN,Smith,36.253136946329185,-85.95627714869076,1980,14835,19,12.874150803793635,23.136683860165768,1980
47163,TN,Sullivan,36.5146666023264,-82.29714844302869,1980,145261,207,12.87003989082511,226.54923048274622,1980
47171,TN,Unicoi,36.108210234968034,-82.4350417162606,1980,16597,35,15.012551276556664,25.88470118147431,1980
47173,TN,Union,36.290718651134455,-83.83682653887472,1980,11988,14,24.339122251689624,18.696499232603127,1980
47175,TN,Van Buren,35.69709962253987,-85.45337938879241,1980,4776,9,17.01676214725228,7.448655349925969,1980
47177,TN,Warren,35.67841409967843,-85.77431409472341,1980,32555,48,17.238408762268094,50.772817193643206,1980
47179,TN,Washington,36.29626737269874,-82.49758706785222,1980,90332,120,14.150753768844226,140.88189595257802,1980
47185,TN,White,35.92621354341169,-85.44908707046484,1980,19867,23,17.465240088902668,30.984597118295483,1980
51005,VA,Alleghany,37.786132922822254,-80.01192443783984,1980,14292,20,9.976029328821207,22.289820406436768,1980
51017,VA,Bath,38.06066303844342,-79.7397016738807,1980,5487,9,12.714535901926446,8.557531805913692,1980
51021,VA,Bland,37.130946878367546,-81.131775121248,1980,6537,15,12.637455591270509,10.19511307003058,1980
51023,VA,Botetourt,37.55630669943633,-79.81280164453324,1980,23382,33,7.667912068815711,36.466595350077256,1980
51027,VA,Buchanan,37.26536036018144,-82.04195406471841,1980,37648,51,18.75066482289118,58.71586612521208,1980
51035,VA,Carroll,36.73177670578765,-80.73509001973756,1980,27169,34,16.123530938345752,42.37280510932551,1980
51045,VA,Craig,37.48118818513944,-80.21105988050309,1980,3975,13,10.207700101317123,6.19941478558537,1980
51051,VA,Dickenson,37.12349432810049,-82.35208820908225,1980,19741,46,17.53391374772221,30.78808736660145,1980
51063,VA,Floyd,36.92758355965389,-80.36612886096137,1980,11698,24,15.424457905363884,18.24421488346608,1980
51071,VA,Giles,37.310715568580214,-80.70849421851712,1980,17660,39,12.547228331359612,27.54255726124217,1980
51077,VA,Grayson,36.656729058534864,-81.23033926028408,1980,16686,31,13.963114005721593,26.02350568862327,1980
51089,VA,Henry,36.68196743648293,-79.87573161274823,1980,57745,105,9.765066750322424,90.05917152040934,1980
51091,VA,Highland,38.35929210807279,-79.56806002550921,1980,2751,13,15.069894306171156,4.2904629119862525,1980
51105,VA,Lee,36.707376010363824,-83.12486436795277,1980,26065,48,25.912139893761392,40.6510053801969,1980
51121,VA,Montgomery,37.171586406281314,-80.38815647160193,1980,65192,72,19.7074197763903,101.6735216860079,1980
51141,VA,Patrick,36.68023601458447,-80.28377006563728,1980,17490,39,13.106879396122832,27.277425056575627,1980
51155,VA,Pulaski,37.06448434773826,-80.70949644074273,1980,35325,43,11.024773483197617,55.09291252850393,1980
51163,VA,Rockbridge,37.816494655692075,-79.45200672814943,1980,17834,30,14.703073206359909,27.813927870724395,1980
51167,VA,Russell,36.9273449875456,-82.10156162996934,1980,31546,56,14.822784810126588,49.19917957888706,1980
51169,VA,Scott,36.71340933324935,-82.60308891043776,1980,24712,43,22.164041889839314,38.540864951292,1980
51173,VA,Smyth,36.84622744127412,-81.5372032341931,1980,33428,48,13.709875784036406,52.1343490446661,1980
51185,VA,Tazewell,37.12412258111115,-81.56868979963392,1980,50545,89,14.284855648828962,78.83004285217925,1980
51191,VA,Washington,36.722423740416296,-81.95464424798645,1980,45923,64,15.123102717966821,71.62156608765709,1980
51195,VA,Wise,36.97446804886923,-82.61487984734481,1980,43799,62,15.386748630722654,68.30897313052921,1980
51197,VA,Wythe,36.91718922830242,-81.08030152583281,1980,25588,50,13.817014700637953,39.90707560592665,1980
54001,WV,Barbour,39.13005191198874,-80.00281316386183,1980,16737,12,19.984940704022087,26.10304535002323,1980
54003,WV,Berkeley,39.46030342686926,-78.04131371101161,1980,47817,76,13.91163462801594,74.57545076788318,1980
54005,WV,Boone,38.024163905921604,-81.70122245054003,1980,30319,53,14.750642334804663,47.28554890167618,1980
54007,WV,Braxton,38.69952267843222,-80.72311013118235,1980,14180,13,24.60638451538351,22.11514507159762,1980
54009,WV,Brooke,40.27186112293389,-80.576726137279,1980,30852,33,8.964487222037837,48.116816343366004,1980
54011,WV,Cabell,38.423640537272256,-82.23863130198548,1980,107242,160,13.510535472646431,167.25475231087955,1980
54013,WV,Calhoun,38.84065996139924,-81.118513229287,1980,8420,11,25.261620832319302,13.131842137013535,1980
54015,WV,Clay,38.46011606561143,-81.07903891418647,1980,11328,18,31.820208686346213,17.667162438015364,1980
54017,WV,Doddridge,39.26548997674146,-80.70550211201498,1980,7571,9,21.53388340321926,11.80774071488474,1980
54019,WV,Fayette,38.0303100375794,-81.08255342666165,1980,57353,90,16.95155182786566,89.44780784847237,1980
54021,WV,Gilmer,38.92733095917375,-80.86113171344607,1980,8591,10,21.66092613853808,13.398533942884002,1980
54023,WV,Grant,39.10878210092865,-79.1984891960632,1980,10280,11,22.897838899803535,16.032700376306316,1980
54025,WV,Greenbrier,37.94446874344492,-80.45641645271903,1980,37628,64,15.023120765673726,58.68467410113365,1980
54027,WV,Hampshire,39.314216674323184,-78.61110558069842,1980,15053,12,16.898786541643688,23.47667692262052,1980
54029,WV,Hancock,40.522089940349495,-80.5757152246981,1980,40521,35,7.6796694132583205,63.19660038407668,1980
54031,WV,Hardy,39.00593245082312,-78.85886644125101,1980,9988,21,20.757758968158,15.57729682476143,1980
54033,WV,Harrison,39.28321921858825,-80.37583288805864,1980,77808,130,14.301388471636255,121.34945047467329,1980
54035,WV,Jackson,38.83280250456927,-81.67198126497107,1980,26303,29,13.301282051282053,41.02219046673006,1980
54037,WV,Jefferson,39.311492789238336,-77.86398940271323,1980,30970,35,13.353289292595653,48.300849285428654,1980
54039,WV,Kanawha,38.33909028569885,-81.52777970987718,1980,231259,436,10.601595535986748,360.67181481753136,1980
54041,WV,Lewis,38.992398036415096,-80.50003684897165,1980,18946,30,17.32213875386655,29.548204409484377,1980
54043,WV,Lincoln,38.16985136895672,-82.07338762229253,1980,23806,22,24.47469665581533,37.127866260539705,1980
54045,WV,Logan,37.82862192715532,-81.93367509660484,1980,50333,102,16.6188941822998,78.49940739694803,1980
54047,WV,McDowell,37.382027631794635,-81.65268429600604,1980,48938,92,23.535911602209946,76.32376371747844,1980
54049,WV,Marion,39.5106511723066,-80.24119839037171,1980,65196,90,13.790975703817972,101.67976009082359,1980
54051,WV,Marshall,39.86363576024024,-80.65984303347605,1980,41143,52,10.075084654267068,64.16667233291544,1980
54053,WV,Mason,38.770635470723626,-82.02645530330098,1980,27182,35,13.28865091549032,42.393079924976476,1980
54055,WV,Mercer,37.40365747976871,-81.10917812415781,1980,73991,142,15.076516932722848,115.39645267930744,1980
54057,WV,Mineral,39.41087361063548,-78.94716567893302,1980,27443,38,13.27735502492784,42.80013583919983,1980
54059,WV,Mingo,37.72761329313792,-82.13351908384662,1980,37563,49,23.630853403422197,58.5833000228788,1980
54061,WV,Monongalia,39.632737356366384,-80.0433074272646,1980,76540,88,16.277704598820232,119.37187614810169,1980
54063,WV,Monroe,37.55967566347032,-80.55167700125648,1980,12893,22,20.920699984234584,20.10793832215149,1980
54065,WV,Morgan,39.56185767548902,-78.26311166771279,1980,10976,12,16.720348616900342,17.118182814235226,1980
54067,WV,Nicholas,38.29454047692786,-80.79705529361428,1980,28322,34,16.65177454519461,44.17102529744625,1980
54069,WV,Ohio,40.09711236839527,-80.62006781504492,1980,61096,95,11.643905249245991,95.28539515474812,1980
54071,WV,Pendleton,38.6837263738599,-79.35415240897314,1980,8038,14,20.27113441616575,12.536074477115777,1980
54073,WV,Pleasants,39.36668851448994,-81.16050266378608,1980,8143,9,13.787311022095878,12.699832603527465,1980
54075,WV,Pocahontas,38.32612652763167,-80.01246000157917,1980,9806,24,13.602222450869432,15.29344940564783,1980
54077,WV,Preston,39.46755320773797,-79.66774056033664,1980,30651,44,18.720063863757318,47.803336501377906,1980
54079,WV,Putnam,38.50821333907232,-81.90823777430721,1980,38477,38,10.03939075630252,60.008775523262464,1980
54081,WV,Raleigh,37.76516623109645,-81.2455083947597,1980,86688,127,13.043731506721652,135.19870916549044,1980
54083,WV,Randolph,38.769568953530005,-79.88099193440661,1980,29025,45,17.457409782011357,45.2674249438026,1980
54085,WV,Ritchie,39.17500286929088,-81.06749047780002,1980,11493,17,17.804963914803732,17.924496636662305,1980
54087,WV,Roane,38.71413319315465,-81.34745551527674,1980,15883,24,18.48184818481848,24.771145921874822,1980
54089,WV,Summers,37.652955969096425,-80.85978629207763,1980,15888,32,23.254870129870127,24.77894392789443,1980
54091,WV,Taylor,39.33761520579056,-80.03544322322334,1980,16550,37,15.379901960784313,25.811399924890036,1980
54093,WV,Tucker,39.11128812512826,-79.56864270595077,1980,8630,10,16.95611358835954,13.459358389836915,1980
54095,WV,Tyler,39.463204089826434,-80.87952337701356,1980,11316,12,14.708750775777993,17.648447223568308,1980
54097,WV,Upshur,38.896314644079524,-80.23325194023704,1980,23908,20,16.993848380676678,37.28694558333964,1980
54099,WV,Wayne,38.14570233195892,-82.4278836081261,1980,46050,50,18.6071840895724,71.81963544055503,1980
54101,WV,Webster,38.496399678253,-80.42065529439874,1980,12160,24,27.92674950948332,18.964750639677508,1980
54103,WV,Wetzel,39.604274805221436,-80.63394216720425,1980,21854,26,13.177226813590453,34.08352471048621,1980
54105,WV,Wirt,39.020590415719255,-81.38174082942515,1980,5041,9,17.72773797338792,7.861949668964994,1980
54107,WV,Wood,39.21227386800215,-81.51171794254795,1980,93427,118,11.143150278092769,145.70886167871305,1980
54109,WV,Wyoming,37.61235182008515,-81.55019026120685,1980,35338,70,19.312051610032814,55.11318734415492,1980
1007,AL,Bibb,32.996456285921184,-87.12496297519769,1986,15897,12,21.23888930694559,23.94889289716209,1981
1009,AL,Blount,33.985247659332146,-86.56975624844863,1986,37914,49,19.01220018839859,57.117589815877416,1981
1015,AL,Calhoun,33.776189735428126,-85.8189278837142,1986,117738,157,16.68361422709341,177.3727591322935,1981
1017,AL,Chambers,32.91159373040564,-85.38992379742452,1986,37952,60,18.38563715666737,57.17483696503086,1981
1019,AL,Cherokee,34.17497968295821,-85.59996079989199,1986,18957,26,19.118207619259366,28.558794907938708,1981
1021,AL,Chilton,32.85025257838065,-86.71979303213024,1986,31907,46,21.19442377147697,48.06802073785939,1981
1027,AL,Clay,33.26819989491128,-85.86182353790683,1986,13487,32,23.533352396680414,20.318218437694227,1981
1029,AL,Cleburne,33.66784374695962,-85.51760443449372,1986,12542,17,19.67090645681736,18.8945722284838,1981
1033,AL,Colbert,34.70164419827768,-87.80588967135368,1986,52473,84,14.602766838635585,79.05078046126856,1981
1037,AL,Coosa,32.9339057489659,-86.24996070274753,1986,11125,19,32.205784550332595,16.759856166630698,1981
1043,AL,Cullman,34.12799501622364,-86.87337990995529,1986,65773,73,18.705138437691765,99.08728266497087,1981
1049,AL,DeKalb,34.456711875623874,-85.80487501202649,1986,53570,71,20.22507512356321,80.70341526709271,1981
1051,AL,Elmore,32.59769368916557,-86.1452473221196,1986,46121,60,19.43269800623845,69.48146752909432,1981
1055,AL,Etowah,34.04716480510881,-86.03722956105759,1986,101609,142,16.33850398198759,153.07435732451043,1981
1057,AL,Fayette,33.72120846868618,-87.73891196860764,1986,18943,20,18.136185945221275,28.537703852987452,1981
1059,AL,Franklin,34.44236097221343,-87.84309469036268,1986,28559,39,37.42509235045475,43.024245596656726,1981
1065,AL,Hale,32.760169518322485,-87.63241145686933,1986,15064,14,53.28993550652663,22.693975127561785,1981
1071,AL,Jackson,34.78106081387498,-85.99804919713327,1986,48618,61,16.592737768042632,73.24320783004507,1981
1073,AL,Jefferson,33.55452855088513,-86.89111568110866,1986,658625,1092,15.89811476168393,992.2211476626646,1981
1075,AL,Lamar,33.777399737273136,-88.09823954914171,1986,16490,18,18.26475527864652,24.84224972474069,1981
1077,AL,Lauderdale,34.903376854144675,-87.6491398858879,1986,80160,76,15.625647947796425,120.76135463524643,1981
1079,AL,Lawrence,34.51928062773837,-87.31379316943203,1986,30913,36,24.90248219689053,46.57055583631954,1981
1083,AL,Limestone,34.81041614190275,-86.98448065995663,1986,50041,48,18.237653602170656,75.3869629154487,1981
1087,AL,Macon,32.38729003632757,-85.68942463730481,1986,25360,23,33.936143087551685,38.20493954029254,1981
1089,AL,Madison,34.762676175755715,-86.55163054971966,1986,220343,264,15.115653567535624,331.947594366194,1981
1093,AL,Marion,34.13605357143094,-87.88798411615092,1986,30208,33,16.661890360225986,45.50847056913079,1981
1095,AL,Marshall,34.36813351123298,-86.30693410178158,1986,69755,122,16.942904482985785,105.08618129468084,1981
1103,AL,Morgan,34.453680838606985,-86.85238315519133,1986,95508,103,14.700566099512427,143.8831768775339,1981
1107,AL,Pickens,33.279382860001604,-88.08929135614927,1986,21614,15,27.377550646690587,32.561575836903906,1981
1111,AL,Randolph,33.291530217402844,-85.45920035570087,1986,19717,29,51.344035105366316,29.70373789100741,1981
1115,AL,St. Clair,33.71885298468711,-86.31221325588201,1986,45942,54,15.96294985091198,69.21180332650314,1981
1117,AL,Shelby,33.26499661207799,-86.66154507631303,1986,83158,79,13.714245889533036,125.27785340266749,1981
1121,AL,Talladega,33.377467343415674,-86.16749103144913,1986,75387,88,22.422373307964673,113.57081140079,1981
1123,AL,Tallapoosa,32.86644758465434,-85.7968286923543,1986,38549,48,17.7090016039092,58.07421980830984,1981
1125,AL,Tuscaloosa,33.28961721031977,-87.52287706395529,1986,143826,150,21.10875226083102,216.67443353005183,1981
1127,AL,Walker,33.804336015925124,-87.30002599326517,1986,68463,94,18.333515154975697,103.13977822346405,1981
1133,AL,Winston,34.15006038079343,-87.37282173302387,1986,22070,23,20.362837715058262,33.248541626745116,1981
13011,GA,Banks,34.358362819139714,-83.49995604352969,1986,9624,9,13.365356415651894,14.498593775070006,1981
13013,GA,Barrow,33.99175186532207,-83.71436587219553,1986,25788,41,17.638461890233746,38.849723220231226,1981
13015,GA,Bartow,34.23916053211942,-84.83819548424641,1986,48346,74,13.765768435841267,72.83343876242047,1981
13045,GA,Carroll,33.58414340792257,-85.0841733344248,1986,65196,89,16.373559696651245,98.21802990019371,1981
13047,GA,Catoosa,34.89880329073349,-85.1376024762798,1986,39581,51,11.513954739565385,59.62893185900312,1981
13055,GA,Chattooga,34.474061719902586,-85.34505802232799,1986,21858,41,16.43280580232996,32.92916279462596,1981
13057,GA,Cherokee,34.24176460972207,-84.4749343942568,1986,71780,73,12.542382172878213,108.13685174298892,1981
13083,GA,Dade,34.85781983175896,-85.50355549495337,1986,12497,16,18.12634832559646,18.826779551854727,1981
13085,GA,Dawson,34.439673778649805,-84.16489780209591,1986,7336,9,22.038140649783138,11.051712794463173,1981
13097,GA,Douglas,33.70280759733599,-84.76930036118401,1986,64720,79,8.508720072361497,97.50093403185068,1981
13105,GA,Elbert,34.1152791472876,-82.83694208678105,1986,18926,28,19.68714805774485,28.51209328626091,1981
13111,GA,Fannin,34.86601757613723,-84.31707353363663,1986,15446,31,25.61359311462461,23.269459626946315,1981
13115,GA,Floyd,34.267749732610554,-85.21051675008646,1986,79808,95,12.449108740931482,120.23106525361463,1981
13117,GA,Forsyth,34.22722441755388,-84.12279757248986,1986,36134,65,12.336338660978795,54.43601282921651,1981
13119,GA,Franklin,34.372667942301085,-83.23550561203301,1986,16174,25,21.393117505536004,24.366194484412127,1981
13123,GA,Gilmer,34.69071343968068,-84.45280623502725,1986,12190,17,21.61551815414236,18.364282846851975,1981
13129,GA,Gordon,34.50833040796824,-84.87140226047435,1986,32848,53,13.73533130677608,49.48564093136946,1981
13135,GA,Gwinnett,33.96231988090233,-84.0220851525183,1986,277541,277,6.390951635220612,418.1166058735147,1981
13137,GA,Habersham,34.63053091749805,-83.52888662097617,1986,26503,28,15.942416264421384,39.92687352667087,1981
13139,GA,Hall,34.318198457051025,-83.81622721026437,1986,87142,144,11.045810250789618,131.27976504022763,1981
13143,GA,Haralson,33.796148965714174,-85.20986990345294,1986,20792,40,15.615557644782474,31.323229610479594,1981
13147,GA,Hart,34.347955832526026,-82.96250063340062,1986,19336,22,17.855685222668807,29.129759895547966,1981
13149,GA,Heard,33.297433432704764,-85.12908371330357,1986,7615,15,17.842433378959377,11.472027389563394,1981
13157,GA,Jackson,34.1354098133277,-83.56825444507544,1986,27919,43,14.109889560638292,42.060083084598865,1981
13187,GA,Lumpkin,34.570584113002205,-84.00270482722755,1986,12673,12,17.102835012895707,19.09192424267064,1981
13195,GA,Madison,34.1302778306209,-83.21330431786096,1986,19343,29,16.189324545260533,29.140305423023605,1981
13213,GA,Murray,34.789567656922976,-84.74680296084345,1986,22883,35,15.243724283054329,34.47332931784362,1981
13223,GA,Paulding,33.919987782863764,-84.86313898719439,1986,33029,53,13.6662103501136,49.75831814181082,1981
13227,GA,Pickens,34.46518469779033,-84.46760460409592,1986,13079,23,18.773704372491025,19.703564836257343,1981
13233,GA,Polk,34.00394744464617,-85.18442251712011,1986,33497,64,16.171513280189053,50.46336197875313,1981
13241,GA,Rabun,34.882351172941874,-83.40730481400934,1986,10989,19,18.284863932409944,16.554971632818404,1981
13257,GA,Stephens,34.549808512250145,-83.29044307549547,1986,22614,30,15.561691068186883,34.068079761994305,1981
13281,GA,Towns,34.91488055676013,-83.74004798025207,1986,6387,9,26.74851693061511,9.622040569552382,1981
13291,GA,Union,34.829139647224366,-83.98796761925891,1986,10617,17,28.815644596595803,15.994552172684774,1981
13295,GA,Walker,34.73431661938368,-85.3015810336374,1986,57298,75,12.45900210524987,86.31966189982973,1981
13311,GA,White,34.64285448855226,-83.74792739428986,1986,11557,17,17.84202187821517,17.410665862269752,1981
13313,GA,Whitfield,34.813300396746826,-84.96126750266609,1986,69283,91,12.284577106545182,104.37511144203822,1981
21001,KY,Adair,37.10766151313809,-85.27792374280187,1986,15535,18,31.540894349456337,23.40353847627936,1981
21011,KY,Bath,38.14373304200314,-83.7414905981694,1986,9940,11,28.559900241724854,14.974649015398574,1981
21013,KY,Bell,36.73042114926372,-83.67807383905777,1986,33367,49,31.92602176853965,50.267516468491365,1981
21019,KY,Boyd,38.351003849782316,-82.6828280376035,1986,52557,57,15.54766451734099,79.17732679097614,1981
21025,KY,Breathitt,37.52302890358717,-83.33170536577413,1986,16173,22,37.40118222655571,24.364687980487037,1981
21043,KY,Carter,38.31860566671436,-83.05276378026778,1986,24760,22,26.74069335523573,37.30103718523829,1981
21045,KY,Casey,37.3292530077064,-84.92799412789655,1986,14746,19,38.619903060672975,22.21490687938304,1981
21049,KY,Clark,37.96911886144236,-84.14729926324206,1986,28920,49,16.63156181935957,43.56809351361437,1981
21051,KY,Clay,37.1635092661364,-83.7160766781258,1986,23117,21,44.22914137294834,34.825851236314776,1981
21053,KY,Clinton,36.72111786345463,-85.128331763145,1986,9455,17,39.58868278095033,14.24399461172973,1981
21057,KY,Cumberland,36.78731523989615,-85.38968028469206,1986,7004,14,31.23276777252429,10.551553491333161,1981
21061,KY,Edmonson,37.21065921227277,-86.23915101010384,1986,10320,19,26.407764464054125,15.547120506932929,1981
21063,KY,Elliott,38.11869337010685,-83.09529376514064,1986,6471,9,39.57884449795402,9.748586899259976,1981
21065,KY,Estill,37.69143854769993,-83.96143089196073,1986,14873,11,29.027594214881052,22.40623287786952,1981
21069,KY,Fleming,38.36884961533301,-83.70056299868467,1986,12264,17,63.35121249486224,18.475764137308666,1981
21071,KY,Floyd,37.559946179794046,-82.74199163414895,1986,46548,65,26.041997895678573,70.12474470510793,1981
21079,KY,Garrard,37.644082567596094,-84.54104465834624,1986,11439,19,22.822298416426406,17.232898399109086,1981
21087,KY,Green,37.26161673480646,-85.55287490380813,1986,10719,15,25.808881205537947,16.148215573043995,1981
21089,KY,Greenup,38.543298867847746,-82.91989844448129,1986,36834,32,17.449498583212822,55.49056557677979,1981
21095,KY,Harlan,36.85931051635973,-83.22286996520224,1986,40328,60,28.189598174219107,60.75429029104565,1981
21099,KY,Hart,37.300077324830454,-85.8860301003842,1986,14988,24,31.483176414335713,22.57948082925491,1981
21109,KY,Jackson,37.42079908838914,-83.99980134615599,1986,11919,19,108.31670560747627,17.956020283152476,1981
21115,KY,Johnson,37.848895689532426,-82.8346569055932,1986,24867,35,23.814257099592485,37.46223310522297,1981
21119,KY,Knott,37.35595632185564,-82.95543627401278,1986,18298,20,47.79291866028708,27.56600882130413,1981
21121,KY,Knox,36.88819722772831,-83.85400812857823,1986,30240,31,38.21122645761429,45.55667869473368,1981
21125,KY,Laurel,37.10787393617837,-84.12134975795429,1986,42463,51,23.163252524101118,63.97067617111365,1981
21127,KY,Lawrence,38.065633183449506,-82.73878427902201,1986,14643,19,200.10253034747558,22.059736975098723,1981
21129,KY,Lee,37.59719003039768,-83.71534748361906,1986,7700,9,35.54073069496665,11.60008022319608,1981
21131,KY,Leslie,37.097459320416455,-83.380259284952,1986,14537,20,34.45025771535757,21.900047559039145,1981
21133,KY,Letcher,37.12211792767265,-82.85393024098151,1986,29027,34,29.392652345822054,43.72928943359904,1981
21135,KY,Lewis,38.52912178750733,-83.38615396319727,1986,13723,14,31.42695181092645,20.673753364015557,1981
21137,KY,Lincoln,37.45809008407723,-84.65668285409079,1986,19478,22,28.06637916802243,29.34368345291081,1981
21147,KY,McCreary,36.73492902916602,-84.48346990878316,1986,16168,19,2278.1884439874016,24.357155460861588,1981
21151,KY,Madison,37.71450926545657,-84.27134487247834,1986,55341,47,21.147024920199925,83.37143371842781,1981
21153,KY,Magoffin,37.700247146997015,-83.0662250704307,1986,13965,9,37.093790757074274,21.038327313887446,1981
21159,KY,Martin,37.79850919316122,-82.50868320000302,1986,13589,22,30.036469151577762,20.471881838053445,1981
21165,KY,Menifee,37.94057732866296,-83.5998625358691,1986,5103,9,40.6453366405448,7.687689529736311,1981
21169,KY,Metcalfe,36.98825272075444,-85.62412889325354,1986,9355,9,31.607749171527683,14.093344219220693,1981
21171,KY,Monroe,36.70864312983213,-85.72165970123639,1986,11951,20,30.24213351406631,18.00422840875537,1981
21173,KY,Montgomery,38.04115235796928,-83.91670631859309,1986,19787,19,22.166259473145256,29.80919316576374,1981
21175,KY,Morgan,37.92364193087342,-83.26151656642057,1986,11646,10,42.04371780714961,17.544744711602796,1981
21181,KY,Nicholas,38.33351481503677,-84.02383287964444,1986,7079,9,21.306628576553482,10.66454128571494,1981
21189,KY,Owsley,37.42556349733932,-83.68364789390358,1986,5394,9,50.09033965649097,8.126082171937616,1981
21193,KY,Perry,37.24714256181998,-83.22368330883386,1986,32731,49,26.09639947211292,49.30937997213388,1981
21195,KY,Pike,37.4641631026586,-82.39341024890952,1986,78069,94,21.358300968423453,117.61125492788244,1981
21197,KY,Powell,37.829856108192395,-83.82036673090694,1986,11622,9,26.188678395289273,17.508588617400626,1981
21199,KY,Pulaski,37.103802330860795,-84.57907025532626,1986,47415,58,22.425166061509934,71.43088360816131,1981
21201,KY,Robertson,38.51451701358183,-84.05192280464247,1986,2215,9,24.682219042231026,3.3369061940752363,1981
21203,KY,Rockcastle,37.36715021862909,-84.315201525912,1986,14605,16,34.591509170953806,22.002489825945286,1981
21205,KY,Rowan,38.1886865905926,-83.4282274767362,1986,19128,19,35.86838665290678,28.81640707912917,1981
21207,KY,Russell,36.99045974188001,-85.05964297275492,1986,14168,20,32.995496290006656,21.344147610680785,1981
21231,KY,Wayne,36.80304767994051,-84.82219650960067,1986,17296,15,35.62934921203126,26.056491888363556,1981
21235,KY,Whitley,36.75609403430615,-84.14875277950892,1986,34453,44,100.79141238150171,51.90357973113954,1981
21237,KY,Wolfe,37.744919508281825,-83.4970677060834,1986,6994,9,59.41208203600921,10.536488452082256,1981
24001,MD,Allegany,39.619692908848364,-78.70476842019038,1986,75920,124,16.007039251949283,114.37377799286315,1981
24023,MD,Garrett,39.53207137941799,-79.27337780170771,1986,26779,29,15.79008503449964,40.34266860999582,1981
24043,MD,Washington,39.602373550503174,-77.82085586524563,1986,116589,141,11.36652724380176,175.64178612236458,1981
28003,MS,Alcorn,34.882401759751744,-88.57716011473364,1986,32497,45,20.306993459587886,48.95685805366272,1981
28009,MS,Benton,34.81716643422459,-89.18945815072884,1986,8190,9,25.492529916056434,12.338267146490375,1981
28013,MS,Calhoun,33.93465789992443,-89.33461292724466,1986,14655,18,26.209409456303295,22.077815022199808,1981
28017,MS,Chickasaw,33.92184715754966,-88.9447354600207,1986,17893,20,21.39363658258104,26.955874731642524,1981
28019,MS,Choctaw,33.347535484758964,-89.25051430016414,1986,8946,14,30.21915182987141,13.477184113858714,1981
28025,MS,Clay,33.6536068355625,-88.77796103671827,1986,21366,20,26.010691559860934,32.18796286348148,1981
28057,MS,Itawamba,34.27989954888438,-88.36077420409036,1986,20091,24,15.657774433758162,30.267170358991226,1981
28069,MS,Kemper,32.75459305697637,-88.64097092576138,1986,10428,9,44.800168333498355,15.709822930842687,1981
28081,MS,Lee,34.291999503070585,-88.68147806716148,1986,62263,78,16.019026462905106,93.79945388790355,1981
28087,MS,Lowndes,33.47321921633493,-88.44248470173545,1986,60098,60,22.17186458154322,90.53787289008284,1981
28093,MS,Marshall,34.760138836808814,-89.50143107293266,1986,30555,30,33.00314575323314,46.03122743113717,1981
28095,MS,Monroe,33.89197836887148,-88.48050842431219,1986,36874,37,21.38337736670126,55.550825733783405,1981
28097,MS,Montgomery,33.49419588737756,-89.61729103363704,1986,12680,12,32.602564593686054,19.10246977014627,1981
28103,MS,Noxubee,33.110123552258344,-88.56955918167833,1986,12866,9,40.52879190557209,19.382679500213086,1981
28105,MS,Oktibbeha,33.42472425417841,-88.87907312180022,1986,37669,36,29.00786608099752,56.74849635423027,1981
28107,MS,Panola,34.36447144357219,-89.95050411605357,1986,28633,24,34.445519035343274,43.13572688711342,1981
28115,MS,Pontotoc,34.22607612498239,-89.03636107181593,1986,21182,21,19.554277383005267,31.910766141264855,1981
28117,MS,Prentiss,34.618114150114565,-88.51975465465149,1986,24072,23,18.09785186568588,36.264562484776114,1981
28139,MS,Tippah,34.76889941495527,-88.90731201805252,1986,18586,28,24.400442590074,27.99988195173017,1981
28141,MS,Tishomingo,34.74123246365633,-88.23855426093283,1986,17603,20,22.21278410381981,26.51898859336631,1981
28145,MS,Union,34.49181731349697,-89.00814506387206,1986,22260,30,22.67850703857334,33.5347773725123,1981
28155,MS,Webster,33.612926433128315,-89.28273683122717,1986,10533,9,38.369827446896366,15.86800584297718,1981
28159,MS,Winston,33.08890655207067,-89.035418362035,1986,19504,22,25.878557114228453,29.382852554963158,1981
28161,MS,Yalobusha,34.0284714678083,-89.70890484934868,1986,12396,24,25.874409617364947,18.674622655420595,1981
36003,NY,Allegany,42.25771299641307,-78.02637989144647,1986,50056,56,15.52885841823567,75.40956047432506,1981
36007,NY,Broome,42.16075801509496,-75.81842929619197,1986,213068,269,10.071718741258069,320.9877783111613,1981
36009,NY,Cattaraugus,42.247566999208985,-78.67941427640899,1986,84967,110,13.997467352249865,128.003119003156,1981
36013,NY,Chautauqua,42.22769412034111,-79.36702793338576,1986,142925,198,13.647780629530144,215.31707349354545,1981
36015,NY,Chemung,42.141498492017284,-76.7584950377986,1986,91175,119,12.485422974750035,137.3554953701172,1981
36017,NY,Chenango,42.49395920535269,-75.60817245742848,1986,50036,70,12.467648209625757,75.37943039582325,1981
36023,NY,Cortland,42.595696582012465,-76.07070453093762,1986,47987,50,18.926284516463344,72.29260385331304,1981
36025,NY,Delaware,42.19758131031266,-74.96646596862364,1986,46041,62,14.97270101867024,69.3609472150871,1981
36077,NY,Otsego,42.635650239269964,-75.0306288073739,1986,58764,72,15.502902284846051,88.52819665401226,1981
36095,NY,Schoharie,42.58874219803142,-74.44207498383395,1986,30143,22,13.550221898620071,45.410547813999926,1981
36097,NY,Schuyler,42.394407987680395,-76.88032488491828,1986,17920,19,10.646480301082448,26.99655033761996,1981
36101,NY,Steuben,42.268534602024744,-77.3814566312603,1986,96611,145,16.452108542108522,145.54485070690862,1981
36107,NY,Tioga,42.168697336415036,-76.30734590670049,1986,50833,59,8.827997528414699,76.58011402412029,1981
36109,NY,Tompkins,42.45089018297964,-76.47243845827458,1986,89804,92,17.399303282754214,135.2900784888183,1981
37003,NC,Alexander,35.922659677932465,-81.17436439265245,1986,26545,36,9.249637656394679,39.99014669152466,1981
37005,NC,Alleghany,36.489787604146,-81.13380419356923,1986,9514,18,20.47889363722697,14.332878343310066,1981
37009,NC,Ashe,36.431279414119075,-81.50301613141356,1986,22360,28,32.257823098634994,33.68542776502134,1981
37011,NC,Avery,36.072716589469216,-81.92584964882211,1986,14705,25,19.24105001131478,22.15314021845433,1981
37021,NC,Buncombe,35.60827215424009,-82.52100953468846,1986,168475,284,13.539945891919212,253.80824877960515,1981
37023,NC,Burke,35.75025792211415,-81.71046471545758,1986,74521,133,10.091908581480784,112.26617900166168,1981
37027,NC,Caldwell,35.94834965554608,-81.54642898733542,1986,69711,98,10.595599947429786,105.01989512197686,1981
37039,NC,Cherokee,35.13513518827213,-84.06456883699074,1986,19639,47,22.973760024552305,29.58623058485036,1981
37043,NC,Clay,35.05782515021145,-83.74482067027425,1986,7160,12,26.810861324413157,10.78656810364726,1981
37059,NC,Davie,35.924975358900376,-80.54835528949444,1986,26761,30,12.160604160844894,40.315551539344185,1981
37067,NC,Forsyth,36.128566385742175,-80.26016209826109,1986,258638,451,12.116557415264905,389.6391621775309,1981
37075,NC,Graham,35.35086875637412,-83.83253812489541,1986,7253,9,21.33188998198698,10.92667296868067,1981
37087,NC,Haywood,35.55622377103415,-82.98430977469809,1986,47729,86,18.908429953117636,71.9039258406397,1981
37089,NC,Henderson,35.332451318784024,-82.48546033241823,1986,65778,117,13.190760824729395,99.09481518459631,1981
37099,NC,Jackson,35.28144869691526,-83.13861846090862,1986,26273,44,19.34803625137808,39.58037762390008,1981
37111,NC,McDowell,35.6864334589627,-82.05222650687048,1986,35591,52,11.87026118221278,53.61798119789242,1981
37113,NC,Macon,35.152904723865944,-83.42439317001488,1986,22645,32,17.644086851907307,34.1147813836721,1981
37115,NC,Madison,35.85795942085804,-82.7075265973742,1986,17102,17,26.64574606202272,25.76423012689601,1981
37121,NC,Mitchell,36.01903714840599,-82.17331356382228,1986,14343,26,17.12048044413345,21.607785797571605,1981
37149,NC,Polk,35.2785042831579,-82.16666317983028,1986,13963,19,15.176411589581967,21.035314306037254,1981
37161,NC,Rutherford,35.40154342768418,-81.92400883011123,1986,55848,86,14.23265065935513,84.13523120844866,1981
37169,NC,Stokes,36.40214373227822,-80.239287125827,1986,35591,54,13.947540211408265,53.61798119789242,1981
37171,NC,Surry,36.41144572904821,-80.69087110135331,1986,60752,105,14.477579714767787,91.52312645709198,1981
37173,NC,Swain,35.4874306725269,-83.49493471563963,1986,10972,30,26.737635291230845,16.529361066091862,1981
37175,NC,Transylvania,35.20297917072682,-82.79504015473589,1986,25365,41,13.384343035638704,38.21247205991799,1981
37189,NC,Watauga,36.22683354979276,-81.70535594952554,1986,35635,25,23.48694119708883,53.6842673705964,1981
37193,NC,Wilkes,36.20281293611431,-81.16590257947267,1986,59557,94,14.111952503844467,89.72285426660895,1981
37197,NC,Yadkin,36.15600448988789,-80.66325098942386,1986,29538,52,15.050956101881699,44.49911293932024,1981
37199,NC,Yancey,35.89849759792397,-82.30580843488367,1986,15450,19,26.12955895382284,23.27548564264668,1981
39001,OH,Adams,38.845255678896244,-83.47295401550771,1986,24293,32,24.917687233182942,36.59749985222109,1981
39007,OH,Ashtabula,41.70755233438669,-80.74855122584229,1986,100125,134,16.433206706932257,150.83870549967628,1981
39009,OH,Athens,39.33366973719062,-82.04191190086432,1986,58341,64,25.38121688564245,87.89094549369902,1981
39013,OH,Belmont,40.01604492279913,-80.99018905149879,1986,75443,95,13.950713979962952,113.65517562059506,1981
39015,OH,Brown,38.93399744134472,-83.8672818337953,1986,32900,37,15.210837012154975,49.563979135474156,1981
39019,OH,Carroll,40.5788829006453,-81.0951314510191,1986,26223,18,10.875965178697973,39.505052427645566,1981
39025,OH,Clermont,39.04982093853725,-84.1548760783537,1986,139875,144,8.35060732337083,210.7222365220197,1981
39029,OH,Columbiana,40.76504802314248,-80.7771567889072,1986,108152,125,18.392067477345627,162.93141250637692,1981
39031,OH,Coshocton,40.30244499301967,-81.91974487480583,1986,35389,41,14.201212437036906,53.313667405024155,1981
39053,OH,Gallia,38.82665521978604,-82.31463983443271,1986,30108,35,15.623343228921296,45.35782017662177,1981
39059,OH,Guernsey,40.04996854001837,-81.4968593806242,1986,39812,34,16.357525692176573,59.97693426569899,1981
39067,OH,Harrison,40.29321298614549,-81.09070740875414,1986,16527,21,16.7701076156643,24.89799036996904,1981
39071,OH,Highland,39.184620963108,-83.60510396543206,1986,34038,37,15.114383894254965,51.27838060222703,1981
39073,OH,Hocking,39.49637839426545,-82.47713270337599,1986,24580,31,13.077123342086725,37.02986647872204,1981
39075,OH,Holmes,40.56163288868535,-81.9263696264815,1986,31446,22,18.693941388117768,47.37352242839272,1981
39079,OH,Jackson,39.02106309794471,-82.61552778768142,1986,30208,43,17.969930823412053,45.50847056913079,1981
39081,OH,Jefferson,40.38730289932763,-80.76332447023171,1986,83148,126,14.936350381249616,125.26278836341656,1981
39087,OH,Lawrence,38.59754769074685,-82.53664037663691,1986,62200,77,22.408105529149093,93.70454414062289,1981
39099,OH,Mahoning,41.01286198260703,-80.77775711223738,1986,271236,424,14.42110732761176,408.6180986258197,1981
39105,OH,Meigs,39.080105311650044,-82.01520116957663,1986,23182,26,23.00752946921277,34.92377399144565,1981
39111,OH,Monroe,39.72666403387222,-81.07936673359109,1986,15848,22,18.96460588000199,23.87507420483265,1981
39115,OH,Morgan,39.61957489534746,-81.85090083057226,1986,14001,22,16.66850817163984,21.092561455190687,1981
39119,OH,Muskingum,39.966520291362656,-81.94577514427743,1986,82451,105,13.90298862424492,124.21275512762855,1981
39121,OH,Noble,39.76818851123618,-81.45937183415612,1986,11369,17,15.273792707242064,17.127443124352755,1981
39127,OH,Perry,39.73815888471912,-82.23638167084911,1986,31122,28,13.751900857144356,46.88541515666343,1981
39131,OH,Pike,39.07598401741543,-83.07027891989642,1986,23415,30,21.055430463576158,35.27478940599171,1981
39141,OH,Ross,39.336760883517925,-83.05920181570788,1986,66721,78,13.125572443758914,100.51544838595656,1981
39145,OH,Scioto,38.8011158913095,-82.99367949381934,1986,81643,102,22.10847760765952,122.99549995615551,1981
39155,OH,Trumbull,41.31742008599128,-80.76110030078303,1986,230844,324,10.826475086557078,347.76739208356827,1981
39157,OH,Tuscarawas,40.437114980386646,-81.47217202925542,1986,83603,113,22.115754891935204,125.9482476493327,1981
39163,OH,Vinton,39.252843016795026,-82.48595540070261,1986,11270,15,23.371808999081733,16.978299235768805,1981
39167,OH,Washington,39.45691024245798,-81.49233492886759,1986,63428,59,11.014357875851996,95.55453096063387,1981
42003,PA,Allegheny,40.465034241870256,-79.978954466311,1986,1367260,2270,10.828974385605399,2059.7825566191,1981
42005,PA,Armstrong,40.8123856206925,-79.46550075053662,1986,76318,93,10.60803185731639,114.97336655504914,1981
42007,PA,Beaver,40.68219239336738,-80.34875800363788,1986,188479,250,12.564898150179793,283.9443532971135,1981
42009,PA,Bedford,40.005936217740384,-78.4896062007238,1986,47099,41,14.678205372614215,70.95482836783275,1981
42013,PA,Blair,40.47723684786133,-78.35055711877322,1986,131484,169,13.866223778234424,198.08116208658606,1981
42015,PA,Bradford,41.78879908180103,-76.5158164254837,1986,61304,86,13.885855997593515,92.35471662374188,1981
42019,PA,Butler,40.91140054953501,-79.9128990716287,1986,148669,176,7.29715607415504,223.97043203926467,1981
42021,PA,Cambria,40.49443898683218,-78.71185388796506,1986,170199,269,12.235074873558275,256.40546154646097,1981
42023,PA,Cameron,41.436332298858645,-78.20386569442026,1986,6122,19,11.230648536379404,9.222817029403428,1981
42025,PA,Carbon,40.913167386901314,-75.70597315610998,1986,54316,92,7.940786194427294,81.82726719521015,1981
42027,PA,Centre,40.92203468688562,-77.81824606823722,1986,117777,92,17.141677191246416,177.43151278537204,1981
42031,PA,Clarion,41.19546199318124,-79.42336838806017,1986,42350,39,15.812399913357014,63.80044122757843,1981
42033,PA,Clearfield,40.999379596971,-78.47308284818986,1986,81035,105,11.895358451322766,122.07954556970057,1981
42035,PA,Clinton,41.2358413931936,-77.63436626089761,1986,37240,35,15.351873653100178,56.102206170366486,1981
42037,PA,Columbia,41.04981632305999,-76.40380677861594,1986,61488,84,11.910725215744913,92.63191334595852,1981
42039,PA,Crawford,41.68459206001365,-80.10735206126095,1986,87797,129,13.837783038892088,132.26652511116185,1981
42047,PA,Elk,41.428107108124685,-78.64557876998508,1986,36654,51,8.00859444068243,55.21939487026352,1981
42049,PA,Erie,41.99236639544638,-80.03247948615176,1986,277122,385,13.811588553695747,417.4853807289018,1981
42051,PA,Fayette,39.92106932123257,-79.64411511531453,1986,150762,256,18.802138836409064,227.12354475447887,1981
42053,PA,Forest,41.513661311374996,-79.23197596586637,1986,4684,13,12.419195571626275,7.056464385123433,1981
42057,PA,Fulton,39.92630408729074,-78.11157439470689,1986,13441,14,15.371466847857144,20.248919257140066,1981
42059,PA,Greene,39.85283815961429,-80.2232593941186,1986,40578,56,14.624475930941625,61.130916272318245,1981
42061,PA,Huntingdon,40.421370291699574,-77.97686746427162,1986,43720,57,13.827706444211113,65.86435160495228,1981
42063,PA,Indiana,40.65145226775638,-79.08650961497837,1986,92017,103,13.977991662102882,138.62397167504332,1981
42065,PA,Jefferson,41.130022115661156,-78.99759384576456,1986,47356,55,11.595808833871848,71.34199987658097,1981
42067,PA,Juniata,40.53142769287285,-77.40585793638617,1986,19722,24,13.464315303876846,29.711270410632878,1981
42069,PA,Lackawanna,41.434683112750704,-75.60822617834344,1986,223150,363,10.30451578379675,336.1763508839228,1981
42073,PA,Lawrence,40.99077826064697,-80.3343526946106,1986,98816,119,12.85450472535724,148.86669186173296,1981
42079,PA,Luzerne,41.17710778579855,-75.98243616259141,1986,327998,545,11.511048368826915,494.13027442180083,1981
42081,PA,Lycoming,41.34382289958747,-77.06068881822378,1986,115614,126,11.351780760935775,174.1729447954015,1981
42083,PA,McKean,41.809520673700106,-78.5723916574792,1986,48611,71,13.139936861394961,73.23266230256942,1981
42085,PA,Mercer,41.30155827155718,-80.258213252466,1986,122834,154,11.934305689543125,185.04990313455414,1981
42087,PA,Mifflin,40.61623708546824,-77.6109020936088,1986,45842,46,13.752824678824465,69.06115293399411,1981
42089,PA,Monroe,41.05684891019836,-75.33977187371454,1986,77946,131,8.8613930458279,117.42595494509632,1981
42093,PA,Montour,41.033291624100116,-76.66841630451262,1986,17234,13,8.749621323874,25.96308864500795,1981
42097,PA,Northumberland,40.85059074495749,-76.71092617628436,1986,97845,128,11.550490383230288,147.4038765504702,1981
42099,PA,Perry,40.40137772673239,-77.25718600216071,1986,38608,36,8.701563650558144,58.16310353989016,1981
42103,PA,Pike,41.33029786981072,-75.03147345867978,1986,20448,29,9.31504782109162,30.80499226024849,1981
42105,PA,Potter,41.744838732807814,-77.89576705989248,1986,17053,17,15.890077388276525,25.690411434566588,1981
42107,PA,Schuylkill,40.70590912714066,-76.21263156263278,1986,154152,284,10.888248644532045,232.2305930605353,1981
42109,PA,Snyder,40.77089298977678,-77.07099409367433,1986,35748,21,10.87867291429667,53.854502314131615,1981
42111,PA,Somerset,39.97122645404977,-79.02765583114018,1986,79664,95,13.384723336568149,120.01412868840158,1981
42113,PA,Sullivan,41.446343742988894,-76.51262649665256,1986,6088,11,19.172762103796586,9.171595895950354,1981
42115,PA,Susquehanna,41.82248983012018,-75.79975086028496,1986,39109,48,13.215149273903622,58.91786200636045,1981
42117,PA,Tioga,41.77299274922828,-77.25528592568294,1986,40641,53,18.252926113928996,61.22582601959894,1981
42119,PA,Union,40.954034719414075,-77.07143518287371,1986,34812,29,9.838271521123565,52.44441464024701,1981
42121,PA,Venango,41.402857247694136,-79.75982360671578,1986,62267,74,11.545264775857605,93.80547990360391,1981
42123,PA,Warren,41.81334731706143,-79.27779736446892,1986,46135,67,9.204822070084443,69.5025585840456,1981
42125,PA,Washington,40.188711470429155,-80.25042327557965,1986,208816,298,11.39606546958432,314.58212362167694,1981
42127,PA,Wayne,41.64940507484564,-75.3013356374813,1986,36935,36,12.540264338843258,55.64272247321392,1981
42129,PA,Westmoreland,40.30948858417853,-79.46488738280983,1986,376685,448,9.871128242326408,567.4774310226773,1981
42131,PA,Wyoming,41.520856309386296,-76.01501113832902,1986,27207,18,10.898488053873049,40.98745228993451,1981
45007,SC,Anderson,34.51765728009019,-82.63864434573149,1986,139344,229,12.671004897491805,209.92228293779667,1981
45021,SC,Cherokee,35.04974682306474,-81.61753483635475,1986,42515,57,14.429025691836022,64.04901437521835,1981
45045,SC,Greenville,34.89104867731327,-82.36787898993309,1986,304795,427,12.261871058669447,459.1748638479284,1981
45073,SC,Oconee,34.75536746151503,-83.0696524384478,1986,53401,114,15.166935282375526,80.44881610375245,1981
45077,SC,Pickens,34.887143912247595,-82.72608330449034,1986,87178,104,11.384778839073178,131.33399918153088,1981
45083,SC,Spartanburg,34.932709963783545,-81.99304774386157,1986,216008,354,14.554329451842785,325.4168998509271,1981
47001,TN,Anderson,36.118957530033825,-84.19713461582741,1986,66981,86,14.68568288884588,100.90713940648008,1981
47007,TN,Bledsoe,35.59448297460386,-85.20518498326145,1986,9701,9,27.315177572151107,14.614594577301967,1981
47009,TN,Blount,35.689804503151485,-83.92140370769845,1986,82142,107,12.778842585585625,123.74724541477562,1981
47011,TN,Bradley,35.150957411913026,-84.86088881169427,1986,70951,87,13.934624615288513,106.88795998908896,1981
47013,TN,Campbell,36.40240279235425,-84.14457449114335,1986,35464,42,26.32811051070795,53.426655199405936,1981
47015,TN,Cannon,35.80875367442373,-86.06361157130205,1986,10394,16,18.564419847583768,15.658601797389615,1981
47019,TN,Carter,36.29123723629193,-82.12669964474514,1986,51872,83,19.442728706100187,78.14537160228922,1981
47025,TN,Claiborne,36.48402798269159,-83.65907017384805,1986,25750,35,31.11868850231122,38.79247607107779,1981
47027,TN,Clay,36.547826106558354,-85.54222365077844,1986,7424,16,28.656673847525443,11.184285139871127,1981
47029,TN,Cocke,35.928264070033244,-83.12025618928281,1986,29133,37,27.816988444875363,43.88897884965861,1981
47031,TN,Coffee,35.491857125790226,-86.07536878315035,1986,39543,62,14.508566870252919,59.571684709849684,1981
47035,TN,Cumberland,35.948990311173915,-85.0012207200778,1986,31608,56,23.287675742295622,47.61757606425736,1981
47041,TN,DeKalb,35.97883288362529,-85.8318282164069,1986,14113,24,24.03409876382221,21.261289894800814,1981
47049,TN,Fentress,36.377104309091976,-84.93016935035125,1986,15185,20,38.43390873862015,22.87626210249773,1981
47051,TN,Franklin,35.15393383719049,-86.09438319663093,1986,33749,32,17.42613274117782,50.8430009678759,1981
47057,TN,Grainger,36.27545594584792,-83.50942309877729,1986,17172,24,24.24557616861789,25.86968540165235,1981
47059,TN,Greene,36.17744886993448,-82.84434312565473,1986,55980,76,18.55541671578451,84.33408972656058,1981
47061,TN,Grundy,35.38892304324621,-85.72893584199079,1986,13850,19,25.585568174210483,20.865079362502037,1981
47063,TN,Hamblen,36.217178621705436,-83.26091422254775,1986,50622,86,16.563812269040195,76.26224169592622,1981
47065,TN,Hamilton,35.178898350342564,-85.16603582864137,1986,282082,363,15.23291761645815,424.9576401973501,1981
47067,TN,Hancock,36.52412641819769,-83.2238419964052,1986,6815,15,44.1969847673756,10.266824249491076,1981
47073,TN,Hawkins,36.44169378409708,-82.94578300741695,1986,44392,65,18.34071816139463,66.87672224261303,1981
47087,TN,Jackson,36.364107508756334,-85.67751572682603,1986,9058,11,31.10569607984587,13.64591255346884,1981
47089,TN,Jefferson,36.053645964491466,-83.45045747809384,1986,32455,35,17.722468555768714,48.89358488880893,1981
47091,TN,Johnson,36.453719423103344,-81.84906550101076,1986,14113,21,26.875601142996125,21.261289894800814,1981
47093,TN,Knox,35.99699332879875,-83.93658731056719,1986,324039,407,14.743120221364762,488.1660253823681,1981
47099,TN,Lawrence,35.21761442134906,-87.3963279129036,1986,34998,41,17.111161026735168,52.72462437031382,1981
47101,TN,Lewis,35.52955014001552,-87.49590701155373,1986,9446,10,21.900071357997586,14.230436076403914,1981
47105,TN,Loudon,35.73076105999539,-84.3091699874898,1986,30152,48,13.089085035749036,45.42410634932574,1981
47107,TN,McMinn,35.42272106993007,-84.61801033727106,1986,42506,47,16.147607670777248,64.03545583989253,1981
47111,TN,Macon,36.53172091480432,-86.00796813562144,1986,15879,26,18.440872441096946,23.921775826510462,1981
47115,TN,Marion,35.13108269155478,-85.62582075406347,1986,24718,26,18.96557779203994,37.237764020384496,1981
47121,TN,Meigs,35.51470415591632,-84.81734901835648,1986,7747,12,16.84863959557766,11.670885907675329,1981
47123,TN,Monroe,35.44262282447503,-84.24942154051354,1986,30216,23,20.333246215868648,45.52052260053152,1981
47129,TN,Morgan,36.131966813553966,-84.64718423469269,1986,16936,19,31.846109754664532,25.51415047533101,1981
47133,TN,Overton,36.341574546614375,-85.28843628197501,1986,17546,22,26.694998553319305,26.43311786963616,1981
47137,TN,Pickett,36.55859712696381,-85.07900097219097,1986,4535,9,31.37082274876376,6.831995300284962,1981
47139,TN,Polk,35.1196678114741,-84.5205148800593,1986,13856,23,20.69749595231086,20.874118386052576,1981
47141,TN,Putnam,36.14326972884025,-85.50660384989126,1986,49282,57,16.761525273239958,74.24352643630509,1981
47143,TN,Rhea,35.609849291623156,-84.92986007146268,1986,24525,22,20.112324598380347,36.94700876284207,1981
47145,TN,Roane,35.84614704454565,-84.52241722369209,1986,48280,54,14.320872079077782,72.73400950336449,1981
47151,TN,Scott,36.42677010660577,-84.50229006647206,1986,19243,22,28.711466963257,28.98965503051457,1981
47153,TN,Sequatchie,35.372152550037825,-85.41020541285475,1986,8675,11,22.38075225229845,13.06892155015922,1981
47155,TN,Sevier,35.783641764397906,-83.51997212032005,1986,46904,60,15.842974238452625,70.66106010244013,1981
47159,TN,Smith,36.253136946329185,-85.95627714869076,1986,14152,21,15.450612523071936,21.32004354787934,1981
47163,TN,Sullivan,36.5146666023264,-82.29714844302869,1986,143967,182,170.29810343620966,216.8868505834896,1981
47171,TN,Unicoi,36.108210234968034,-82.4350417162606,1986,16754,16,42.323338741606996,25.23996676096456,1981
47173,TN,Union,36.290718651134455,-83.83682653887472,1986,12567,19,25.193737008235658,18.93223482661105,1981
47175,TN,Van Buren,35.69709962253987,-85.45337938879241,1986,4917,9,18.80650945677221,7.4074797996694945,1981
47177,TN,Warren,35.67841409967843,-85.77431409472341,1986,32701,34,17.298736452457668,49.26418485438116,1981
47179,TN,Washington,36.29626737269874,-82.49758706785222,1986,90706,115,14.276468290631035,136.6489450292498,1981
47185,TN,White,35.92621354341169,-85.44908707046484,1986,19912,25,17.512392800615775,29.99750615640005,1981
51005,VA,Alleghany,37.786132922822254,-80.01192443783984,1986,13768,18,10.072584314336767,20.741546040644625,1981
51017,VA,Bath,38.06066303844342,-79.7397016738807,1986,5122,12,13.487994383804972,7.716313104313028,1981
51021,VA,Bland,37.130946878367546,-81.131775121248,1986,6415,9,19.950400639793287,9.664222679454916,1981
51023,VA,Botetourt,37.55630669943633,-79.81280164453324,1986,23967,27,8.052474791725334,36.106379572641615,1981
51027,VA,Buchanan,37.26536036018144,-82.04195406471841,1986,34595,44,20.294486321881738,52.11750328850238,1981
51035,VA,Carroll,36.73177670578765,-80.73509001973756,1986,26813,29,18.439855742368547,40.393889743448895,1981
51045,VA,Craig,37.48118818513944,-80.21105988050309,1986,4170,9,10.350688446203524,6.282121367626967,1981
51051,VA,Dickenson,37.12349432810049,-82.35208820908225,1986,19074,34,20.27063740160612,28.735055867174285,1981
51063,VA,Floyd,36.92758355965389,-80.36612886096137,1986,11665,22,15.527997797163463,17.573368286179516,1981
51071,VA,Giles,37.310715568580214,-80.70849421851712,1986,16886,17,12.749603879908063,25.43882527907649,1981
51077,VA,Grayson,36.656729058534864,-81.23033926028408,1986,16320,14,15.128114657878491,24.586144057475327,1981
51089,VA,Henry,36.68196743648293,-79.87573161274823,1986,58350,101,10.115459507414661,87.90450402902485,1981
51091,VA,Highland,38.35929210807279,-79.56806002550921,1986,2657,9,15.93888842428492,4.002780928965191,1981
51105,VA,Lee,36.707376010363824,-83.12486436795277,1986,25363,48,27.021594425835943,38.209459052067814,1981
51121,VA,Montgomery,37.171586406281314,-80.38815647160193,1986,68451,59,20.510366841444775,103.12170017636295,1981
51141,VA,Patrick,36.68023601458447,-80.28377006563728,1986,17341,45,13.651138432994669,26.124284564992625,1981
51155,VA,Pulaski,37.06448434773826,-80.70949644074273,1986,34999,56,11.868263509861645,52.7261308742389,1981
51163,VA,Rockbridge,37.816494655692075,-79.45200672814943,1986,17917,25,14.81638394414193,26.992030825844694,1981
51167,VA,Russell,36.9273449875456,-82.10156162996934,1986,30736,37,17.18186838516356,46.303904641578534,1981
51169,VA,Scott,36.71340933324935,-82.60308891043776,1986,24308,48,22.49781504245048,36.62009741109743,1981
51173,VA,Smyth,36.84622744127412,-81.5372032341931,1986,32533,56,16.92641565577609,49.011092194965975,1981
51185,VA,Tazewell,37.12412258111115,-81.56868979963392,1986,48143,85,17.016591474085313,72.52761846562711,1981
51191,VA,Washington,36.722423740416296,-81.95464424798645,1986,45602,66,15.165225631845065,68.69959199197241,1981
51195,VA,Wise,36.97446804886923,-82.61487984734481,1986,42323,78,17.737622514612262,63.75976562160099,1981
51197,VA,Wythe,36.91718922830242,-81.08030152583281,1986,25318,45,19.023328998165454,38.141666375438746,1981
54001,WV,Barbour,39.13005191198874,-80.00281316386183,1986,16481,20,21.85606103000521,24.82869118941488,1981
54003,WV,Berkeley,39.46030342686926,-78.04131371101161,1986,52243,91,14.526301890173483,78.70428455849776,1981
54005,WV,Boone,38.024163905921604,-81.70122245054003,1986,28700,31,19.29815668012712,43.23666265009447,1981
54007,WV,Braxton,38.69952267843222,-80.72311013118235,1986,13969,19,24.87488437386334,21.0443533295878,1981
54009,WV,Brooke,40.27186112293389,-80.576726137279,1986,28359,47,10.882257917685449,42.72294481163865,1981
54011,WV,Cabell,38.423640537272256,-82.23863130198548,1986,102002,143,16.404113236263573,153.66641336707096,1981
54013,WV,Calhoun,38.84065996139924,-81.118513229287,1986,8499,12,26.131444286970897,12.803776859343307,1981
54015,WV,Clay,38.46011606561143,-81.07903891418647,1986,10901,10,34.05825619410912,16.42239928741045,1981
54017,WV,Doddridge,39.26548997674146,-80.70550211201498,1986,7377,9,22.103876629222192,11.113479455391884,1981
54019,WV,Fayette,38.0303100375794,-81.08255342666165,1986,53318,88,20.114183457305,80.32377627796994,1981
54021,WV,Gilmer,38.92733095917375,-80.86113171344607,1986,8360,13,24.440220916991034,12.594372813755744,1981
54023,WV,Grant,39.10878210092865,-79.1984891960632,1986,10340,20,24.460762611029633,15.577250585434735,1981
54025,WV,Greenbrier,37.94446874344492,-80.45641645271903,1986,36178,52,16.552814527966756,54.502299001920484,1981
54027,WV,Hampshire,39.314216674323184,-78.61110558069842,1986,15250,24,17.020794657443872,22.974184857628607,1981
54029,WV,Hancock,40.522089940349495,-80.5757152246981,1986,37366,71,10.136337863658689,56.29202566492789,1981
54031,WV,Hardy,39.00593245082312,-78.85886644125101,1986,10395,25,22.830718356115245,15.660108301314704,1981
54033,WV,Harrison,39.28321921858825,-80.37583288805864,1986,73854,109,15.749091411864336,111.2613408836264,1981
54035,WV,Jackson,38.83280250456927,-81.67198126497107,1986,26019,14,18.44300069300069,39.19772562692712,1981
54037,WV,Jefferson,39.311492789238336,-77.86398940271323,1986,33286,51,14.474551469780732,50.145489650559036,1981
54039,WV,Kanawha,38.33909028569885,-81.52777970987718,1986,219143,344,12.972321359990769,330.1397896560855,1981
54041,WV,Lewis,38.992398036415096,-80.50003684897165,1986,18580,28,18.571762531213896,27.99084292817963,1981
54043,WV,Lincoln,38.16985136895672,-82.07338762229253,1986,22857,23,28.118053129109377,34.434160215791266,1981
54045,WV,Logan,37.82862192715532,-81.93367509660484,1986,47792,76,20.315991068168522,71.99883558792041,1981
54047,WV,McDowell,37.382027631794635,-81.65268429600604,1986,43374,89,28.868409595667142,65.343101246871,1981
54049,WV,Marion,39.5106511723066,-80.24119839037171,1986,61780,104,16.095901480470538,93.0718124920849,1981
54051,WV,Marshall,39.86363576024024,-80.65984303347605,1986,38677,45,13.819533973225914,58.2670523107214,1981
54053,WV,Mason,38.770635470723626,-82.02645530330098,1986,26069,19,18.0424228646223,39.273050823181634,1981
54055,WV,Mercer,37.40365747976871,-81.10917812415781,1986,70471,110,17.09056039755685,106.16483810504559,1981
54057,WV,Mineral,39.41087361063548,-78.94716567893302,1986,26715,31,14.990624795951849,40.24625235879003,1981
54059,WV,Mingo,37.72761329313792,-82.13351908384662,1986,36793,50,24.977315486502523,55.428798915851075,1981
54061,WV,Monongalia,39.632737356366384,-80.0433074272646,1986,76034,65,20.49986960460588,114.54551944032343,1981
54063,WV,Monroe,37.55967566347032,-80.55167700125648,1986,12730,13,20.963079992660035,19.17779496640079,1981
54065,WV,Morgan,39.56185767548902,-78.26311166771279,1986,11100,18,17.176798570887243,16.72219356850344,1981
54067,WV,Nicholas,38.29454047692786,-80.79705529361428,1986,28029,35,17.977069383640593,42.225798516358815,1981
54069,WV,Ohio,40.09711236839527,-80.62006781504492,1986,54532,84,13.692961703896653,82.1526720430297,1981
54071,WV,Pendleton,38.6837263738599,-79.35415240897314,1986,8074,16,33.355672080828754,12.163512691179893,1981
54073,WV,Pleasants,39.36668851448994,-81.16050266378608,1986,7686,11,18.23271633041855,11.578989168244815,1981
54075,WV,Pocahontas,38.32612652763167,-80.01246000157917,1986,9475,11,16.440669819675552,14.274124690231538,1981
54077,WV,Preston,39.46755320773797,-79.66774056033664,1986,30115,33,18.785229923910073,45.36836570409739,1981
54079,WV,Putnam,38.50821333907232,-81.90823777430721,1986,40755,34,10.825705519884007,61.39756746705925,1981
54081,WV,Raleigh,37.76516623109645,-81.2455083947597,1986,84232,137,14.801638952122175,126.89583861821457,1981
54083,WV,Randolph,38.769568953530005,-79.88099193440661,1986,28636,31,19.40573852473693,43.140246398888685,1981
54085,WV,Ritchie,39.17500286929088,-81.06749047780002,1986,10955,9,21.157761948138784,16.50375049936533,1981
54087,WV,Roane,38.71413319315465,-81.34745551527674,1986,15814,15,19.301172228333947,23.823853071379585,1981
54089,WV,Summers,37.652955969096425,-80.85978629207763,1986,15291,23,23.625245083765265,23.035951518557304,1981
54091,WV,Taylor,39.33761520579056,-80.03544322322334,1986,15890,23,19.227393980848152,23.93834736968645,1981
54093,WV,Tucker,39.11128812512826,-79.56864270595077,1986,8025,9,16.985779821926556,12.08969399885046,1981
54095,WV,Tyler,39.463204089826434,-80.87952337701356,1986,10585,15,16.425692033401464,15.946344047081885,1981
54097,WV,Upshur,38.896314644079524,-80.23325194023704,1986,24130,23,18.045386285507508,36.35193971243135,1981
54099,WV,Wayne,38.14570233195892,-82.4278836081261,1986,43571,42,20.564886449688657,65.63988252011382,1981
54101,WV,Webster,38.496399678253,-80.42065529439874,1986,11462,14,30.836105993643805,17.267547989386166,1981
54103,WV,Wetzel,39.604274805221436,-80.63394216720425,1986,20535,23,16.71004972246909,30.93605810173136,1981
54105,WV,Wirt,39.020590415719255,-81.38174082942515,1986,5395,9,25.404797655726377,8.127588675862707,1981
54107,WV,Wood,39.21227386800215,-81.51171794254795,1986,90499,113,12.558262403909108,136.3370987167561,1981
54109,WV,Wyoming,37.61235182008515,-81.55019026120685,1986,32460,53,23.044476174564014,48.90111740843438,1981
1007,AL,Bibb,32.996456285921184,-87.12496297519769,1990,17071,15,21.2,25.04126484769459,1982
1009,AL,Blount,33.985247659332146,-86.56975624844863,1990,40190,38,15.3,58.95427533412487,1982
1015,AL,Calhoun,33.776189735428126,-85.8189278837142,1990,115247,222,15.7,169.05457500452573,1982
1017,AL,Chambers,32.91159373040564,-85.38992379742452,1990,36913,57,18.8,54.14727955731653,1982
1019,AL,Cherokee,34.17497968295821,-85.59996079989199,1990,19876,40,17.6,29.155888941056627,1982
1021,AL,Chilton,32.85025257838065,-86.71979303213024,1990,33200,30,17.1,48.70072010681627,1982
1027,AL,Clay,33.26819989491128,-85.86182353790683,1990,13314,20,17.4,19.5301622741612,1982
1029,AL,Cleburne,33.66784374695962,-85.51760443449372,1990,12684,18,15.3,18.606022103459566,1982
1033,AL,Colbert,34.70164419827768,-87.80588967135368,1990,52557,78,14.6,77.09529357391393,1982
1037,AL,Coosa,32.9339057489659,-86.24996070274753,1990,11170,25,18.2,16.385151915455953,1982
1043,AL,Cullman,34.12799501622364,-86.87337990995529,1990,68740,96,15.3,100.83396084766716,1982
1049,AL,DeKalb,34.456711875623874,-85.80487501202649,1990,55909,86,17.4,82.01230603771056,1982
1051,AL,Elmore,32.59769368916557,-86.1452473221196,1990,50732,76,14.5,74.41822085719889,1982
1055,AL,Etowah,34.04716480510881,-86.03722956105759,1990,100365,165,16.5,147.22433052772936,1982
1057,AL,Fayette,33.72120846868618,-87.73891196860764,1990,18168,24,20.3,26.65044225604332,1982
1059,AL,Franklin,34.44236097221343,-87.84309469036268,1990,28126,38,20.7,41.25772450976851,1982
1065,AL,Hale,32.760169518322485,-87.63241145686933,1990,15736,20,35.6,23.08296781930304,1982
1071,AL,Jackson,34.78106081387498,-85.99804919713327,1990,48595,77,16.6,71.28347872261254,1982
1073,AL,Jefferson,33.55452855088513,-86.89111568110866,1990,656878,1022,16.0,963.5672175399176,1982
1075,AL,Lamar,33.777399737273136,-88.09823954914171,1990,15717,11,18.0,23.055096925266003,1982
1077,AL,Lauderdale,34.903376854144675,-87.6491398858879,1990,81176,124,14.9,119.07619443948543,1982
1079,AL,Lawrence,34.51928062773837,-87.31379316943203,1990,32178,41,19.8,47.20155938545586,1982
1083,AL,Limestone,34.81041614190275,-86.98448065995663,1990,55654,71,14.0,81.63824930195038,1982
1087,AL,Macon,32.38729003632757,-85.68942463730481,1990,24626,20,34.5,36.12361245031497,1982
1089,AL,Madison,34.762676175755715,-86.55163054971966,1990,246398,264,10.9,361.43855520720825,1982
1093,AL,Marion,34.13605357143094,-87.88798411615092,1990,29679,45,19.1,43.535803375006026,1982
1095,AL,Marshall,34.36813351123298,-86.30693410178158,1990,71974,91,17.2,105.57788039060223,1982
1103,AL,Morgan,34.453680838606985,-86.85238315519133,1990,102040,132,12.0,149.68136987046782,1982
1107,AL,Pickens,33.279382860001604,-88.08929135614927,1990,20744,19,28.9,30.429148731801103,1982
1111,AL,Randolph,33.291530217402844,-85.45920035570087,1990,20287,41,18.9,29.75878038575246,1982
1115,AL,St. Clair,33.71885298468711,-86.31221325588201,1990,51345,63,14.8,75.31742391218317,1982
1117,AL,Shelby,33.26499661207799,-86.66154507631303,1990,102833,115,9.2,150.84461297422402,1982
1121,AL,Talladega,33.377467343415674,-86.16749103144913,1990,74754,134,20.2,109.65583225496815,1982
1123,AL,Tallapoosa,32.86644758465434,-85.7968286923543,1990,39383,65,16.0,57.77049578213087,1982
1125,AL,Tuscaloosa,33.28961721031977,-87.52287706395529,1990,153510,154,20.1,225.18215492763144,1982
1127,AL,Walker,33.804336015925124,-87.30002599326517,1990,67974,96,17.3,99.71032375122678,1982
1133,AL,Winston,34.15006038079343,-87.37282173302387,1990,22043,22,19.8,32.33463775043828,1982
13011,GA,Banks,34.358362819139714,-83.49995604352969,1990,10541,21,15.1,15.462478633914163,1982
13013,GA,Barrow,33.99175186532207,-83.71436587219553,1990,31341,54,14.7,45.97377315866653,1982
13015,GA,Bartow,34.23916053211942,-84.83819548424641,1990,57961,84,10.7,85.02236259371017,1982
13045,GA,Carroll,33.58414340792257,-85.0841733344248,1990,72988,81,14.4,107.06530599868393,1982
13047,GA,Catoosa,34.89880329073349,-85.1376024762798,1990,43330,32,12.0,63.560307296034615,1982
13055,GA,Chattooga,34.474061719902586,-85.34505802232799,1990,22647,29,14.6,33.22063880298398,1982
13057,GA,Cherokee,34.24176460972207,-84.4749343942568,1990,96467,89,6.1,141.50639658265797,1982
13083,GA,Dade,34.85781983175896,-85.50355549495337,1990,13257,11,14.6,19.446549592050093,1982
13085,GA,Dawson,34.439673778649805,-84.16489780209591,1990,9843,14,12.8,14.438590000343149,1982
13097,GA,Douglas,33.70280759733599,-84.76930036118401,1990,73278,85,6.6,107.49070385503865,1982
13105,GA,Elbert,34.1152791472876,-82.83694208678105,1990,19168,24,19.7,28.11733141588717,1982
13111,GA,Fannin,34.86601757613723,-84.31707353363663,1990,16268,28,17.2,23.86335285233997,1982
13115,GA,Floyd,34.267749732610554,-85.21051675008646,1990,82274,128,13.6,120.68683873699402,1982
13117,GA,Forsyth,34.22722441755388,-84.12279757248986,1990,46859,57,6.8,68.7369591411236,1982
13119,GA,Franklin,34.372667942301085,-83.23550561203301,1990,17016,23,16.5,24.96058594390318,1982
13123,GA,Gilmer,34.69071343968068,-84.45280623502725,1990,14169,21,16.6,20.784352505827695,1982
13129,GA,Gordon,34.50833040796824,-84.87140226047435,1990,35818,65,11.1,52.5410359272875,1982
13135,GA,Gwinnett,33.96231988090233,-84.0220851525183,1990,374266,319,4.0,549.0067382981234,1982
13137,GA,Habersham,34.63053091749805,-83.52888662097617,1990,28422,34,11.6,41.69192370108229,1982
13139,GA,Hall,34.318198457051025,-83.81622721026437,1990,99525,149,10.6,145.9921436334605,1982
13143,GA,Haralson,33.796148965714174,-85.20986990345294,1990,22115,37,14.4,32.440253769947034,1982
13147,GA,Hart,34.347955832526026,-82.96250063340062,1990,19973,31,14.2,29.298177189561486,1982
13149,GA,Heard,33.297433432704764,-85.12908371330357,1990,8861,11,19.1,12.998104845376474,1982
13157,GA,Jackson,34.1354098133277,-83.56825444507544,1990,30909,50,14.1,45.34007704161397,1982
13187,GA,Lumpkin,34.570584113002205,-84.00270482722755,1990,15179,19,15.3,22.26591055727,1982
13195,GA,Madison,34.1302778306209,-83.21330431786096,1990,21667,48,15.7,31.78308742633699,1982
13213,GA,Murray,34.789567656922976,-84.74680296084345,1990,27257,28,11.3,39.98299782986419,1982
13223,GA,Paulding,33.919987782863764,-84.86313898719439,1990,44525,55,8.8,65.31323984204802,1982
13227,GA,Pickens,34.46518469779033,-84.46760460409592,1990,14849,23,12.8,21.781837134521528,1982
13233,GA,Polk,34.00394744464617,-85.18442251712011,1990,34300,65,16.3,50.31429818264452,1982
13241,GA,Rabun,34.882351172941874,-83.40730481400934,1990,11926,25,13.6,17.494120120297914,1982
13257,GA,Stephens,34.549808512250145,-83.29044307549547,1990,23759,29,17.0,34.851819548730354,1982
13281,GA,Towns,34.91488055676013,-83.74004798025207,1990,6909,12,14.0,10.134737205361251,1982
